station_id,latitude,longitude,elevation,state,name,network,wmo_id
USW00025704,51.8833,-176.65,5.2,AK,ADAK,,70454
USC00500235,70.3464,-150.9283,5.2,AK,ALPINE,,
USC00500243,60.9583,-149.1108,82.9,AK,ALYESKA,,
USC00500247,62.1925,-150.495,124.4,AK,AMBER LAKE,,
USC00500247,62.1925,-150.5033,136.9,AK,AMBER LAKE,,
US1AKAB0052,61.1529,-149.9346,35.4,AK,ANCHORAGE 4.7 SSW,,
USC00500275,61.1561,-149.9847,39.9,AK,ANCHORAGE FORECAST OFFICE,,
USC00500275,61.1561,-149.9847,39.9,AK,ANCHORAGE FRCST OFC,,
USC00500279,61.1167,-149.7333,304.8,AK,ANCHORAGE HILLSIDE,,
USW00026451,61.1689,-150.0278,36.6,AK,ANCHORAGE INTL AP,,70273
USW00026491,61.1781,-149.9664,27.4,AK,ANCHORAGE LAKE HOOD AP,,
USW00026409,61.2169,-149.855,42.1,AK,ANCHORAGE MERRILL FLD,,
USC00500284,61.0883,-149.7561,278.3,AK,ANCHORAGE RABBIT CK #2,,
USC00500284,61.0883,-149.7561,278.3,AK,ANCHORAGE RABBIT CREEK #2,,
USC00500281,61.1025,-149.7169,406.9,AK,ANCHORAGE UPPER DE ARMOUN,,
USC00500281,61.1025,-149.7169,406.9,AK,ANCHORAGE UPPER DEARMOUN,,
USC00500302,61.6244,-149.3397,139.6,AK,ANDERSON LAKE,,
USW00026516,61.5833,-159.5333,26.2,AK,ANIAK AP,,70232
USW00025308,55.0389,-131.5786,33.2,AK,ANNETTE ISLAND AP,GSN,70398
USC00500363,58.3183,-134.1003,28.0,AK,ANNEX CREEK,,
USC00500464,58.3814,-134.645,13.4,AK,AUKE BAY,,
USC00500490,64.8553,-147.7217,135.0,AK,AURORA,,
USS0050M01S,61.75,-150.89,48.8,AK,Alexander Lake,,
USS0041P07S,64.79,-141.23,320.0,AK,American Creek,,
USS0051K05S,59.86,-151.32,503.8,AK,Anchor River Divide,,
USS0049M22S,61.11,-149.67,634.0,AK,Anchorage Hillside,,
USS0049T03S,68.13,-149.48,1463.0,AK,Atigun Pass,,
USW00027502,71.2833,-156.7814,9.4,AK,BARROW POST ROGERS AP,GSN,70026
USC00500657,55.38,-131.4683,10.7,AK,BEAVER FALLS,,
USC00500657,55.3575,-131.6969,10.7,AK,BEAVER FALLS,,
USC00500707,61.5633,-149.1542,38.7,AK,BEN'S FARM,,
USC00500707,61.5633,-149.1542,38.7,AK,BENS FARM,,
USW00026615,60.785,-161.8292,31.1,AK,BETHEL AP,GSN,70219
USW00026533,66.9161,-151.5089,195.7,AK,BETTLES AP,,70174
USW00026415,63.9944,-145.7214,389.2,AK,BIG DELTA AP,,70267
USC00500788,60.8142,-152.297,18.3,AK,BIG RIVER LAKES,,
USC00500832,56.1172,-132.9017,4.0,AK,BLASHKE ISLAND,,
USC00501180,61.5378,-149.0561,26.8,AK,BUTTE 1W,,
USC00501175,61.5836,-149.0056,75.0,AK,BUTTE 3NNE,,
USS0051R01S,66.92,-151.53,195.1,AK,Bettles Field,,
USC00501220,61.1639,-149.7778,78.6,AK,CAMPBELL CREEK SCI CTR,,
USC00501240,61.0183,-147.5147,25.9,AK,CANNERY CREEK,,
USC00501243,63.3953,-148.895,649.8,AK,CANTWELL 2 E,,
USC00501244,63.3725,-148.8442,689.5,AK,CANTWELL 4E,,
USW00026631,68.8667,-166.1333,15.8,AK,CAPE LISBURNE AFS,,70104
USW00025623,58.65,-162.0667,71.9,AK,CAPE NEWENHAM AFS,,70305
USC00501466,65.5667,-144.7653,280.4,AK,CENTRAL #2,,
USC00501492,67.5111,-148.4925,577.6,AK,CHANDALAR LAKE,,
USC00501497,68.0781,-149.5647,990.6,AK,CHANDALAR SHELF DOT,,
USC00501684,64.0917,-141.9211,548.6,AK,CHICKEN,,
USC00501926,62.8256,-149.9061,412.7,AK,CHULITNA RIVER,,
USC00501926,62.8256,-149.9061,412.7,AK,CHULITNA RVR,,
USC00501987,65.4861,-144.6364,262.1,AK,CIRCLE HOT SPRINGS,,
USC00501987,65.4939,-144.6422,262.1,AK,CIRCLE HOT SPRINGS,,
USC00502015,64.2453,-149.1828,196.9,AK,CLEAR SKY,,
USC00502019,64.05,-145.5167,335.3,AK,CLEARWATER,,
USW00025624,55.2208,-162.7325,23.8,AK,COLD BAY AP,GSN,70316
USC00502112,64.925,-147.8803,298.1,AK,COLLEGE 5 NW,,
USC00502107,64.8603,-147.8483,182.0,AK,COLLEGE OBSY,,
USC00502126,70.4322,-150.4094,1.5,AK,COLVILLE VILLAGE,,
USC00502144,60.3925,-149.6661,153.9,AK,COOPER LAKE PROJECT,,
USC00502149,60.4875,-149.968,114.3,AK,COOPER LANDING 5 W,,
USW00026410,60.4889,-145.4511,9.4,AK,CORDOVA M K SMITH AP,,70296
USC00502173,60.5561,-145.7531,7.6,AK,CORDOVA N,,
USC00502173,60.5561,-145.7531,7.6,AK,CORDOVA NORTH,,
USC00502179,60.5358,-145.778,3.0,AK,CORDOVA WWTP,,
USC00502227,55.4772,-133.1408,13.1,AK,CRAIG,,
USS0042N01S,62.07,-142.05,1011.9,AK,Chisana,,
USS0050S01S,67.25,-150.18,317.0,AK,Coldfoot,,
USS0049L10S,60.39,-149.69,365.8,AK,Cooper Lake,,
USW00026565,70.1617,-148.4644,9.1,AK,DEADHORSE 3 S,,70080
USW00027406,70.1917,-148.4772,18.6,AK,DEADHORSE AP,,
USW00026643,66.0689,-162.7639,6.4,AK,DEERING AP,,
USC00502350,64.0839,-145.6136,323.1,AK,DELTA 5 NE,,
USC00502339,64.1172,-145.7511,322.8,AK,DELTA 6 N,,
USC00502339,64.1172,-145.7511,322.8,AK,DELTA 6N,,
USC00502352,63.9647,-145.105,342.9,AK,DELTA JUNCTION 20 SE,,
USC00502352,63.9647,-145.105,342.9,AK,DELTA JUNCTION 20SE,,
USW00096408,63.4519,-150.8747,678.2,AK,DENALI 27 N,,70244
USC00502457,59.05,-158.5167,26.2,AK,DILLINGHAM FAA AP,,70321
USC00502568,63.6772,-144.6011,411.5,AK,DRY CREEK,,
USC00502568,63.6747,-144.6042,413.0,AK,DRY CREEK,,
USC00502587,53.895,-166.5433,3.0,AK,DUTCH HARBOR,,
USC00502607,64.7856,-141.2036,259.1,AK,EAGLE,,
USW00026422,64.7767,-141.1483,276.8,AK,EAGLE AP,,
US1AKAB0021,61.3122,-149.4958,243.5,AK,EAGLE RIVER 2.6 ESE,,
USC00502656,61.2967,-149.44,151.8,AK,EAGLE RIVER 5 SE,,
USC00502656,61.2967,-149.44,151.8,AK,EAGLE RVR 5 SE,,
USC00502645,61.3192,-149.5436,172.8,AK,EAGLE RVR GAKONA CIR,,
USC00502645,61.3192,-149.5436,172.8,AK,EAGLE RVR GAKONA CIRCLE,,
USC00502642,61.2344,-149.2708,158.5,AK,EAGLE RVR NATURE CTR,,
USC00502610,58.2761,-134.5139,345.6,AK,EAGLECREST BASE,,
US1AKPW0001,55.9553,-133.6178,-999.9,AK,EDNA BAY 1.3 E,,
USC00502707,64.6667,-147.1,166.7,AK,EIELSON FLD,,
USW00026407,64.6833,-147.0833,173.1,AK,EIELSON FLD,,70265
USC00502711,63.4258,-150.3117,1146.4,AK,EIELSON VISITOR CTR,,
USC00502737,61.4494,-149.3231,195.1,AK,EKLUTNA WTP,,
USC00502785,58.1919,-136.3436,6.1,AK,ELFIN COVE,,
USC00502785,58.1917,-136.3436,6.1,AK,ELFIN COVE,,
USW00026401,61.25,-149.8,58.5,AK,ELMENDORF AFB,,70272
USC00502870,64.8464,-148.0256,199.6,AK,ESTER,,
USC00502871,64.9111,-147.9242,192.0,AK,ESTER 5NE,,
USC00502868,64.8758,-148.0439,663.5,AK,ESTER DOME,,
USS0045Q05S,65.49,-145.41,1112.5,AK,Eagle Summit,,
USS0048L06S,60.8,-148.09,15.2,AK,Esther Island,,
USS0049L18S,60.19,-149.62,121.9,AK,Exit Glacier,,
USW00026494,64.9736,-147.51,347.5,AK,FAIRBANKS 11 NE,,
USW00026494,64.9736,-147.51,347.5,AK,FAIRBANKS 11 NE,,70263
US1AKFN0015,64.9186,-147.6304,303.6,AK,FAIRBANKS 5.7 N,,
USC00502965,64.8172,-147.8739,130.1,AK,FAIRBANKS AP #2,,
USW00026411,64.8039,-147.8761,131.7,AK,FAIRBANKS INTL AP,GSN,70261
USC00502970,64.8342,-147.7911,134.1,AK,FAIRBANKS MIDTOWN,,
USC00503009,62.5422,-153.6206,323.1,AK,FAREWELL LAKE,,
USC00503181,64.9592,-147.6261,236.2,AK,FOX 2 SE,,
USC00503181,64.9592,-147.6261,236.2,AK,FOX 2SE,,
USC00503160,65.0033,-147.3408,494.1,AK,FT KNOX MINE,,
USC00503163,61.2272,-149.6503,143.3,AK,FT RICHARDSON WTP,,
USC00503196,60.4822,-150.8056,83.8,AK,FUNNY RIVER,,
USC00503198,58.25,-134.9,9.1,AK,FUNTER BAY,,
USS0045O01S,63.2,-145.63,914.4,AK,Fielding Lake,,
USS0045R01S,66.57,-145.25,131.1,AK,Fort Yukon,,
USC00503212,64.7408,-156.8756,46.3,AK,GALENA,,
USW00026501,64.7367,-156.9344,46.6,AK,GALENA AP,,70222
USC00503304,62.1086,-145.5331,421.5,AK,GENNALLEN KCAM,,
USC00503275,64.9767,-147.5211,288.0,AK,GILMORE CREEK,,
USC00503294,58.4561,-135.8692,13.7,AK,GLACIER BAY,,
USC00503299,61.1,-149.6936,688.8,AK,GLEN ALPS,,
USC00503299,61.1,-149.6936,671.2,AK,GLEN ALPS,,
USW00056401,63.0294,-145.5003,813.5,AK,GLENNALLEN 64 N,,70269
USC00503304,62.1086,-145.5328,421.5,AK,GLENNALLEN KCAM,,
USC00503368,64.8939,-147.8753,175.9,AK,GOLDSTREAM CREEK,,
USW00026425,62.1592,-145.4589,476.1,AK,GULKANA AP,,70271
USW00025322,58.4111,-135.7089,12.2,AK,GUSTAVUS,,70367
USW00025380,58.4292,-135.69,6.1,AK,GUSTAVUS 2 NE,,70360
USS0050R04S,66.75,-150.67,618.7,AK,Gobblers Knob,,
USS0049L09S,60.61,-149.06,335.3,AK,Grandview,,
USS0045O04S,63.94,-145.4,378.0,AK,Granite Crk,,
USS0049L14S,60.26,-149.34,213.4,AK,Grouse Creek Divide,,
USC00503502,59.2381,-135.4494,21.3,AK,HAINES #2,,
USC00503502,59.2381,-135.4494,29.0,AK,HAINES #2,,
USC00503504,59.4503,-136.3614,249.9,AK,HAINES 40 NW,,
USC00503504,59.4503,-136.3614,249.9,AK,HAINES 40NW,,
USW00025323,59.2433,-135.5094,4.6,AK,HAINES AP,,
USC00503573,61.9872,-152.0758,304.8,AK,HAYES RIVER,,
USC00503585,63.8675,-148.9942,431.9,AK,HEALY,,
USC00503585,63.8717,-149.0169,448.1,AK,HEALY 2 NW,,
USC00503605,57.2178,-134.877,6.7,AK,HIDDEN FALLS HATCHERY,,
USC00503650,55.4822,-132.65,12.2,AK,HOLLIS,,
USC00503672,59.7444,-151.5514,329.2,AK,HOMER 8 NW,,
USC00503672,59.7444,-151.6347,329.2,AK,HOMER 8 NW,,
USC00503682,59.7161,-151.3256,156.1,AK,HOMER 9 E,,
USW00025507,59.6419,-151.4908,19.5,AK,HOMER AP,GSN,70341
USC00503695,58.1072,-135.4278,39.6,AK,HOONAH,,
USC00503720,60.8983,-149.6286,54.9,AK,HOPE,,
USC00503821,55.9153,-130.0269,24.4,AK,HYDER,,
USC00503821,55.9158,-130.0258,24.4,AK,HYDER,,
USW00025506,59.7494,-154.9089,43.6,AK,ILIAMNA AP,,70340
USC00503933,59.555,-154.4983,36.6,AK,INTRICATE BAY,,
USW00026564,68.485,-155.7505,581.9,AK,IVOTUK 1 NNE,,70075
USS0049T01S,68.62,-149.3,929.6,AK,Imnaviat Creek,,
USS0049M26S,61.79,-149.28,1082.0,AK,Independence Mine,,
USS0049M08S,61.07,-149.48,716.3,AK,Indian Pass,,
USC00504094,58.2989,-134.4111,15.2,AK,JUNEAU DWTN,,
USC00504103,58.4003,-134.5694,32.3,AK,JUNEAU FORECAST OFFICE,,
USW00025309,58.3567,-134.5639,4.9,AK,JUNEAU INTL AP,,70381
USC00504107,58.3869,-134.7658,10.7,AK,JUNEAU LENA PT,,
USC00504109,58.4058,-134.7467,74.7,AK,JUNEAU MILE 17,,
USC00504112,58.2864,-134.385,12.5,AK,JUNEAU-DOUGLAS WWTP,,
USW00026502,64.3267,-158.7417,55.2,AK,KALTAG AP,,
USC00504425,60.3667,-151.3833,21.3,AK,KASILOF 3 NW,,
USW00026563,60.7236,-150.4483,86.0,AK,KENAI 29 ENE,,70342
USC00504550,60.6692,-151.3228,38.4,AK,KENAI 9N,,
USW00026523,60.5797,-151.2392,27.7,AK,KENAI MUNI AP,,70259
USC00504567,61.6794,-144.7639,378.0,AK,KENNY LAKE 7SE,,
USC00504594,55.4519,-131.8183,89.9,AK,KETCHIKAN 10N,,
USW00025325,55.3567,-131.7117,23.2,AK,KETCHIKAN INTL AP,,70395
USC00504621,64.9156,-148.2711,487.7,AK,KEYSTONE RIDGE,,
USW00025503,58.6794,-156.6294,19.2,AK,KING SALMON,GSN,70326
USW00025522,58.2078,-155.9225,201.5,AK,KING SALMON 42 SE,,70348
USC00504812,58.1914,-152.3722,18.3,AK,KITOI BAY,,
USW00026642,67.7317,-164.5483,3.0,AK,KIVALINA AP,,
USW00025367,55.58,-133.075,3.7,AK,KLAWOCK AP,,
USC00504971,64.1942,-149.4314,243.8,AK,KOBE HILL,,
USW00025501,57.7511,-152.4856,24.4,AK,KODIAK AP,,70350
USC00504991,57.8047,-152.3561,16.5,AK,KODIAK WWTP,,
USC00505051,67.25,-162.8,9.1,AK,KOTZEBUE 25 N,,
USW00026616,66.8667,-162.6333,9.1,AK,KOTZEBUE RALPH WEIN AP,GSN,70133
USC00505136,70.3167,-149.5833,19.5,AK,KUPARUK,,
USC00505136,70.3289,-149.6114,19.5,AK,KUPARUK,,
USS0050K07S,59.73,-150.66,506.0,AK,Kachemak Creek,,
USS0050O01S,63.54,-150.99,472.4,AK,Kantishna,,
USS0062S01S,67.93,-162.28,94.5,AK,Kelly Station,,
USS0050L02S,60.73,-150.48,91.4,AK,Kenai Moose Pens,,
USC00505397,62.4528,-146.6789,723.9,AK,LAKE SUSITNA,,
USC00505464,61.6294,-149.0297,221.9,AK,LAZY MTN,,
USC00505464,61.6267,-149.0364,223.4,AK,LAZY MTN,,
USC00505516,64.8833,-147.25,161.5,AK,LITTLE CHENA RVR,,
USC00505519,56.3936,-134.6625,4.3,AK,LITTLE PORT WALTER,,
USC00505519,56.3831,-134.6497,4.3,AK,LITTLE PORT WALTER,,
USC00505527,61.7103,-149.2317,274.9,AK,LITTLE SU AT HATCHER PASS BRG,,
USS0046Q02S,65.12,-146.73,609.6,AK,Little Chena Ridge,,
USS0033J01S,58.19,-133.83,259.1,AK,Long Lake,,
USC00505604,60.5181,-148.093,17.4,AK,MAIN BAY,,
USC00505644,64.9989,-150.638,82.9,AK,MANLEY HOT SPRINGS,,70179
USC00505645,65.1225,-150.2278,152.7,AK,MANLEY HOT SPRINGS 15NE,,
USC00505733,61.5664,-149.2542,52.4,AK,MATANUSKA EXP FARM,,
USC00505733,61.5664,-149.2542,52.4,AK,MATANUSKA EXPERIMENT FARM,,
USC00505757,61.4181,-142.9961,381.0,AK,MCCARTHY 3 SW,,
USW00026510,62.9575,-155.6103,101.5,AK,MCGRATH AP,GSN,70231
USC00505778,63.7175,-148.9692,630.9,AK,MCKINLEY PARK,,
USW00025381,55.0456,-131.5878,32.0,AK,METLAKATLA 6 S,,70359
USW00025402,59.4667,-146.3167,14.0,AK,MIDDLETON ISLAND AUTO,,70343
USC00505873,65.1906,-147.2542,228.6,AK,MILE 39 STEESE,,
USC00505880,65.2222,-147.1667,292.6,AK,MILE 42 STEESE,,
USW00026512,63.9033,-152.2817,312.4,AK,MINCHUMINA,,70246
USC00505881,63.9033,-152.2817,312.4,AK,MINCHUMINA,,70246
USC00505883,61.4253,-149.4075,123.4,AK,MIRROR LAKE SCOUT CAMP,,
USC00505884,57.8425,-152.4586,39.6,AK,MONASHKA CREEK DAM,,
USC00505894,60.5028,-149.4264,141.1,AK,MOOSE PASS 3 NW,,
USC00505894,60.5028,-149.4261,150.0,AK,MOOSE PASS 3NW,,
USS0042M01S,61.35,-142.71,490.7,AK,May Creek,,
USS0051K14S,59.74,-151.25,402.3,AK,Mcneil Canyon,,
USS0054K01S,59.08,-154.28,42.7,AK,Mcneil River SGS,,
USS0050K05S,59.78,-150.76,701.0,AK,Middle Fork Bradley,,
USS0047O01S,63.31,-147.65,826.0,AK,Monahan Flat,,
USS0045Q02S,65.08,-145.87,563.9,AK,Monument Creek,,
USS0035K02S,59.59,-135.21,685.8,AK,Moore Creek Bridge,,
USS0048M04S,61.38,-149.0,640.1,AK,Moraine,,
USS0049L01S,60.96,-149.09,469.4,AK,Mt. Alyeska,,
USS0045L01S,60.55,-145.75,428.2,AK,Mt. Eyak,,
USS0046Q01S,65.25,-146.15,853.4,AK,Mt. Ryan,,
USS0046P01S,64.85,-146.21,944.9,AK,Munson Ridge,,
USC00506581,64.7581,-147.3253,144.8,AK,N POLE,,
USC00509891,64.76,-147.34,151.2,AK,N POLE 1N,,
USC00506147,62.3978,-142.9967,890.0,AK,NABESNA,,
USW00026435,64.55,-149.0717,109.7,AK,NENANA MUNI AP,,70260
USW00026617,64.5111,-165.44,4.0,AK,NOME MUNI AP,GSN,70200
USC00506581,64.7581,-147.3253,144.8,AK,NORTH POLE,,
USW00026412,62.9614,-141.9292,522.1,AK,NORTHWAY AP,,70291
USW00027515,70.2117,-151.0017,17.4,AK,NUIQSUT AP,,
USS0050K06S,59.7,-150.71,381.0,AK,Nuka Glacier,,
USC00506777,61.8,-144.9833,402.3,AK,OLD EDGERTON,,
USC00506853,57.9256,-152.5011,12.2,AK,OUZINKIE,,
US1AKMS0011,61.6185,-149.1258,132.6,AK,PALMER 1.7 WNW,,
USC00506870,61.5889,-149.0992,65.8,AK,PALMER JOB CORPS,,
USW00025331,61.5961,-149.0917,70.1,AK,PALMER MUNI AP,,70274
USC00507097,63.0322,-145.4983,823.0,AK,PAXSON,,
USC00507141,57.9578,-136.2214,3.7,AK,PELICAN,,
USW00025329,56.8056,-132.9372,32.6,AK,PETERSBURG 1,,70386
USC00507352,61.5333,-149.0833,20.4,AK,PLANT MATERIALS CTR,,
USC00507421,56.3511,-133.6264,6.1,AK,POINT BAKER,,
USC00507444,61.4169,-150.0819,48.8,AK,POINT MACKENZIE,,
USC00507513,62.6211,-141.0061,576.7,AK,PORT ALCAN,,
USC00507557,56.2472,-134.6447,3.7,AK,PORT ALEXANDER,,
USC00507570,60.2036,-154.3164,79.2,AK,PORT ALSWORTH,,
USW00026562,60.195,-154.3197,97.8,AK,PORT ALSWORTH 1 SW,,70349
USW00025508,56.95,-158.6167,28.0,AK,PORT HEIDEN,,70333
USC00507738,60.0503,-148.0672,12.2,AK,PORT SAN JUAN,,
USC00507502,60.7833,-148.8333,32.0,AK,PORTAGE GLACIER V C,,
USW00026492,60.785,-148.8389,31.4,AK,PORTAGE GLACIER V C,,
USC00507780,70.25,-148.3333,22.9,AK,PRUDHOE BAY,,
USC00507421,56.3511,-133.6264,6.1,AK,PT BAKER,,
USC00507783,62.0911,-152.735,566.3,AK,PUNTILLA,,70249
USS0063P02S,64.99,-163.1,30.5,AK,Pargon Creek,,
USS0051K15S,59.35,-151.85,91.4,AK,Port Graham,,
USS0048V01S,70.27,-148.57,9.1,AK,Prudhoe Bay,,
USW00096406,64.5014,-154.1297,78.9,AK,RUBY 44 ESE,,70224
USS0045O10S,63.93,-145.33,373.4,AK,Rhoads Creek,,
USS0063P01S,64.53,-163.42,76.2,AK,Rocky Point,,
USC00508140,64.4942,-146.9767,207.3,AK,SALCHA,,
USC00508183,55.3167,-160.5167,6.7,AK,SAND POINT,,
USW00025630,55.3472,-160.4661,73.2,AK,SAND POINT 1 ENE,,70315
USW00025516,59.4433,-151.7017,8.8,AK,SELDOVIA AP,,
USC00508377,60.3539,-149.3483,138.4,AK,SEWARD 19N,,
USC00508377,60.3539,-149.3483,157.9,AK,SEWARD 19N,,
USC00508375,60.1883,-149.6275,125.0,AK,SEWARD 8 NW,,
USC00508375,60.1883,-149.6275,129.2,AK,SEWARD 8 NW,,
USW00026438,60.1283,-149.4167,6.7,AK,SEWARD AP,,70277
USC00508409,61.8125,-147.4992,847.3,AK,SHEEP MTN LODGE,,
USW00045715,52.7167,174.1,37.2,AK,SHEMYA USAF BASE,,70414
USC00508470,61.5175,-144.1914,365.8,AK,SILVER LAKE,,
USW00025379,57.0575,-135.3267,23.8,AK,SITKA 1 NE,,70373
USW00025333,57.0481,-135.3647,4.3,AK,SITKA AIRPORT,,70371
USC00508505,57.0467,-135.3497,10.7,AK,SITKA WTP,,
USC00508525,59.4547,-135.3136,10.7,AK,SKAGWAY,,70362
USW00025335,59.4556,-135.3239,6.1,AK,SKAGWAY AP,,70362
USW00026514,61.9772,-151.2169,45.7,AK,SKWENTNA,,
USC00508547,62.7089,-143.9808,668.1,AK,SLANA,,
USC00508584,58.1422,-133.7386,8.8,AK,SNETTISHAM PWR PLT,,
USC00508594,62.0303,-146.6931,704.7,AK,SNOWSHOE LAKE,,
USC00508615,60.4194,-151.1336,54.9,AK,SOLDOTNA 5SSW,,
USC00508625,62.5333,-145.5167,597.4,AK,SOURDOUGH 1 N,,
USW00026534,61.1,-155.5833,484.0,AK,SPARREVOHN MTN AFS,,70235
USW00025628,56.6,-169.565,38.1,AK,ST GEORGE ISLAND AP,,
USW00025713,57.1553,-170.2222,10.7,AK,ST PAUL ISLAND AP,GSN,70308
USW00025711,57.1575,-170.2119,6.1,AK,ST. PAUL 4 NE,,70309
USC00508731,60.4906,-150.9189,89.0,AK,STERLING 6SW,,
USC00508884,61.9128,-150.0989,45.1,AK,SUSITNA LANDING,,
USC00508915,61.7139,-148.9089,167.6,AK,SUTTON 1 W,,
USS0048U01S,69.42,-148.69,304.8,AK,Sagwon,,
USS0046M04S,61.08,-146.3,167.6,AK,Sugarloaf Mtn,,
USS0049L19S,60.62,-149.53,426.7,AK,Summit Creek,,
USS0050N07S,62.13,-150.04,114.3,AK,Susitna Valley High,,
USC00508945,61.8167,-147.55,798.6,AK,TAHNETA PASS,,
US1AKMS0012,62.2272,-150.0731,116.7,AK,TALKEETNA 7.6 S,,
USW00026528,62.32,-150.095,106.7,AK,TALKEETNA AP,GSN,70251
USW00026529,65.1744,-152.1069,69.2,AK,TANANA CALHOUN MEM AP,,70178
USW00026536,62.9,-155.9667,293.8,AK,TATALINA,,
USC00509148,55.6917,-132.5247,87.2,AK,THORNE BAY,,
USW00026634,65.5667,-167.9167,82.0,AK,TIN CITY,,70117
USC00509313,63.3519,-143.0422,493.8,AK,TOK,,
USC00509313,63.3336,-143.0372,495.3,AK,TOK,,
USC00509314,63.3156,-143.0058,505.4,AK,TOK #2,,
USW00096404,62.7369,-141.2083,609.6,AK,TOK 70 SE,,70292
USC00509385,61.6511,-145.1703,481.3,AK,TONSINA,,
USW00096409,68.6483,-149.3986,750.1,AK,TOOLIK LAKE 5 ENE,,
USC00509460,59.4356,-151.4136,19.2,AK,TUTKA BAY LAGOON,,
USC00509489,64.8656,-146.9542,184.4,AK,TWO RIVERS,,
USS0053L01S,60.98,-153.92,388.6,AK,Telaquana Lake,,
USS0045P03S,64.95,-145.52,499.9,AK,Teuchet Creek,,
USS0050N05S,62.63,-150.78,259.1,AK,Tokositna Valley,,
USS0049L13S,60.78,-149.18,573.0,AK,Turnagain Pass,,
USW00026508,69.3694,-152.14,81.1,AK,UMIAT,,70162
USW00026627,63.8833,-160.8,5.5,AK,UNALAKLEET FLD,,70207
USC00509641,64.8569,-147.8611,144.8,AK,UNIVERSITY EXP STN,,
USW00027516,71.3214,-156.6111,4.6,AK,UTQIAGVIK FORMERLY BARROW 4 EN,,70025
USS0044Q07S,65.1,-144.93,868.7,AK,Upper Chena,,
USS0046Q07S,65.37,-146.59,768.1,AK,Upper Nome Creek,,
USS0045M07S,61.19,-145.65,533.4,AK,Upper Tsaina River,,
USC00509687,61.1311,-146.3822,18.9,AK,VALDEZ,,
USC00509685,61.1314,-146.2436,18.3,AK,VALDEZ AIRPORT,,
USW00026442,61.1303,-146.3517,29.0,AK,VALDEZ WSO,,70275
USW00027503,70.6392,-159.995,9.1,AK,WAINWRIGHT AP,,70030
USW00026618,65.6239,-168.0992,7.6,AK,WALES,,70116
USC00509747,60.7986,-148.0872,10.7,AK,WALLY NOERENBERG HATCH,,
USC00509747,60.7986,-148.0872,10.7,AK,WALLY NOERENBERG HATCHERY,,
USC00509759,61.5333,-149.4333,15.2,AK,WASILLA 3 S,,
USC00509790,61.7067,-149.9978,82.3,AK,WHITES CROSSING,,
USC00509793,64.1539,-145.8894,307.8,AK,WHITESTONE FARMS,,
USC00509793,64.1539,-145.8894,303.3,AK,WHITESTONE FARMS,,
USC00509829,60.7764,-148.6858,18.3,AK,WHITTIER,,
USC00509861,61.7481,-150.0542,62.5,AK,WILLOW WEST,,
USC00509869,67.4192,-150.1069,349.6,AK,WISEMAN,,
USC00509869,67.4083,-150.1095,360.0,AK,WISEMAN,,
USC00509891,64.7803,-147.275,146.3,AK,WOODSMOKE,,
USC00509919,56.4733,-132.3875,17.1,AK,WRANGELL AIRPORT,,70387
USC00509919,56.4733,-132.3875,17.1,AK,WRANGELL AP,,70387
USW00025382,59.5086,-139.685,7.9,AK,YAKUTAT 3 SSE,,
USW00025339,59.5119,-139.6711,10.1,AK,YAKUTAT STATE AP,GSN,70361
USC00010008,31.5703,-85.2483,139.0,AL,ABBEVILLE,,
USC00010063,34.2553,-87.1814,249.3,AL,ADDISON,,
US1ALSH0052,33.1954,-86.8344,166.4,AL,ALABASTER 2.2 SSW,,
US1ALSH0022,33.2462,-86.7903,183.5,AL,ALABASTER 2.4 NE,,
USW00053864,33.1783,-86.7817,172.2,AL,ALABASTER SHELBY CO AP,,72230
USC00010140,32.2322,-87.4103,53.3,AL,ALBERTA,,
US1ALMS0027,34.2747,-86.2369,308.8,AL,ALBERTVILLE 1.8 WNW,,
US1ALMS0013,34.2785,-86.2912,313.0,AL,ALBERTVILLE 4.8 WNW,,
US1ALMS0022,34.3424,-86.2131,324.0,AL,ALBERTVILLE 5.5 N,,
USC00010160,32.9453,-85.9481,195.1,AL,ALEXANDER CITY,,
US1ALTP0007,32.9884,-85.9492,199.3,AL,ALEXANDER CITY 3.1 NNE,,
USC00010178,33.1272,-88.155,59.4,AL,ALICEVILLE,,
USC00010184,33.21,-88.2878,50.3,AL,ALICEVILLE L&D,,
USC00010252,31.3072,-86.5225,76.2,AL,ANDALUSIA 3 W,,
USW00053843,31.3089,-86.3939,94.5,AL,ANDALUSIA OPP AP,,
USC00010260,34.9092,-87.2747,208.8,AL,ANDERSON,,
USW00013871,33.5872,-85.8556,181.1,AL,ANNISTON METRO AP,,
US1ALBL0021,34.2305,-86.4792,297.2,AL,ARAB 7.0 S,,
USC00010369,33.2942,-85.7789,311.5,AL,ASHLAND 3 ENE,,
US1ALSC0011,33.8083,-86.2996,180.4,AL,ASHVILLE 2.7 SW,,
USC00010390,34.7753,-86.9508,210.0,AL,ATHENS,,
US1ALLS0023,34.7869,-86.9536,210.3,AL,ATHENS 1.5 SE,,
USC00010402,31.1819,-87.4389,91.4,AL,ATMORE,,
US1ALLE0004,32.5949,-85.4711,203.0,AL,AUBURN 0.6 ENE,,
US1ALLE0007,32.5844,-85.593,185.9,AL,AUBURN 6.6 W,,
USC00010430,32.6,-85.5,198.7,AL,AUBURN AGRONOMY FARM,,
USC00010425,32.5992,-85.4653,166.1,AL,AUBURN NO.2,,
USC00010440,32.4706,-86.68,61.0,AL,AUTAUGAVILLE 3 N,,
USC00010505,33.4528,-87.3572,85.3,AL,BANKHEAD L&D,,
USC00010505,33.4528,-87.3572,85.3,AL,BANKHEAD LOCK & DAM,,
USC00010583,30.8839,-87.7853,82.6,AL,BAY MINETTE,,
US1ALBW0059,31.0359,-87.7413,90.5,AL,BAY MINETTE 10.9 N,,
USC00010655,34.6908,-86.8825,182.9,AL,BELLE MINA 2 N,,
USC00010655,34.6892,-86.8819,183.8,AL,BELLE MINA 2 N,,
USC00010748,33.6972,-87.6492,157.9,AL,BERRY 3 NW,,
USC00010748,33.6972,-87.6489,150.3,AL,BERRY 3 NW,,
US1ALJF0037,33.379,-86.9775,165.2,AL,BESSEMER 1.0 WNW,,
USC00010764,33.3953,-87.0078,135.6,AL,BESSEMER 3 WSW,,
USC00010823,32.6625,-86.7244,134.1,AL,BILLINGSLEY,,
USW00013876,33.5656,-86.745,187.5,AL,BIRMINGHAM AP,,72228
US1ALBL0006,34.0913,-86.6066,215.2,AL,BLOUNTSVILLE 1.3 NW,,
USC00010957,34.2008,-86.1633,326.1,AL,BOAZ,,
US1ALTG0006,33.2243,-86.3195,150.0,AL,BON AIR 2.8 SSE,,
USC00011080,31.1414,-87.0486,48.8,AL,BREWTON 3 ENE,,
USW00063899,31.145,-87.0517,51.8,AL,BREWTON 3 NNE,,
USC00011084,31.0581,-87.0547,25.9,AL,BREWTON 3 SSE,HCN,
USC00011084,31.0583,-87.055,25.9,AL,BREWTON 3 SSE,HCN,
USC00011099,34.9786,-85.8008,204.2,AL,BRIDGEPORT 5 NW,,
USC00011099,34.9786,-85.8008,202.4,AL,BRIDGEPORT 5 NW,,
USC00011178,31.7056,-85.8369,138.7,AL,BRUNDIDGE,,
USC00011225,33.4517,-86.7158,140.5,AL,CAHABA PUMP HOUSE,,
USW00003850,31.2667,-85.7167,91.1,AL,CAIRNS FLD FT RUCKER,,
USC00011288,33.0944,-86.7456,161.5,AL,CALERA,,
US1ALSH0024,33.1429,-86.7717,188.1,AL,CALERA 3.1 NNW,,
US1ALWX0002,32.0166,-87.2904,79.9,AL,CAMDEN 1.0 NNE,,
USC00011301,32.0289,-87.3167,71.6,AL,CAMDEN 3 NW,,
USC00011324,32.8236,-85.6561,207.3,AL,CAMP HILL 2NW,,
US1ALLS0002,34.8044,-86.8304,224.0,AL,CAPSHAW 3.0 NW,,
USC00011377,33.8464,-87.4872,136.6,AL,CARBON HILL 4SE,,
USC00011490,34.15,-85.6847,182.9,AL,CENTRE,,
USW00003881,32.8661,-87.2383,137.2,AL,CENTREVILLE 6 SW,,72229
USC00011566,31.4714,-88.2503,86.9,AL,CHATOM,,
USC00011620,33.285,-86.3431,127.4,AL,CHILDERSBURG WTP,,
USC00011620,33.285,-86.3431,127.4,AL,CHILDERSBURG WTR PL,,
USC00011690,31.6167,-87.55,15.2,AL,CLAIBORNE L&D,,
USC00011690,31.6147,-87.5003,15.2,AL,CLAIBORNE L&D,,
USC00011694,32.8203,-86.6522,185.9,AL,CLANTON,,
USC00011694,32.8161,-86.6042,179.8,AL,CLANTON,,
USW00063891,32.8517,-86.6114,178.0,AL,CLANTON 2 NE,,
USC00011725,31.8708,-85.45,173.4,AL,CLAYTON,,
US1ALLD0009,34.9129,-87.8829,224.0,AL,CLOVERDALE 6.6 WSW,,
USC00011803,30.3878,-88.2281,3.7,AL,CODEN,,
USC00011803,30.3875,-88.2269,3.7,AL,CODEN,,
USC00011810,31.7556,-88.1283,14.0,AL,COFFEEVILLE L&D,,
USC00011810,31.7561,-88.1289,14.0,AL,COFFEEVILLE L&D,,
US1ALTS0017,33.237,-87.6869,58.2,AL,COKER 0.6 S,,
USW00063868,34.6603,-87.3461,175.3,AL,COURTLAND 2 WSW,,
USW00063867,34.1953,-86.7964,243.8,AL,CULLMAN 3 ENE,,
US1ALCM0003,34.1703,-86.7624,237.1,AL,CULLMAN 4.4 E,,
US1ALCM0006,34.1004,-86.932,171.3,AL,CULLMAN 7.5 SW,,
USC00012096,34.1925,-86.7972,247.2,AL,CULLMAN NAHS,,
USC00012124,32.8622,-85.7358,223.4,AL,DADEVILLE 2,,
US1ALBW0004,30.622,-87.9014,43.9,AL,DAPHNE 0.4 SW,,
US1ALBW0003,30.6424,-87.9076,48.2,AL,DAPHNE 1.2 NNW,,
USC00012172,30.2506,-88.0775,2.4,AL,DAUPHIN IS #2,,
USC00012172,30.2506,-88.0775,2.4,AL,DAUPHIN ISLAND #2,,
USC00012209,34.5756,-86.9339,167.6,AL,DECATUR 4SE,,
USC00012209,34.5569,-86.9503,178.3,AL,DECATUR 5SE,,
USW00053852,34.6525,-86.9453,180.4,AL,DECATUR PRYOR FLD,,
USC00012245,32.5192,-87.88,30.5,AL,DEMOPOLIS L&D,,
USC00012350,33.7478,-87.0586,143.3,AL,DORA,,
USC00012377,31.1942,-85.3708,83.8,AL,DOTHAN,,
USW00013839,31.3214,-85.4497,112.8,AL,DOTHAN RGNL AP,,
US1ALWN0001,34.1939,-87.3895,248.1,AL,DOUBLE SPRINGS 3.2 NNE,,
US1ALMS0019,34.2494,-86.3931,205.1,AL,DOUGLAS 6.8 NW,,
USC00012577,31.4239,-86.0667,59.4,AL,ELBA,,
USC00012675,31.2975,-85.8997,102.7,AL,ENTERPRISE 4 W,,
USC00012730,32.0111,-85.09,70.1,AL,EUFAULA WILDLIFE REF,,
USC00012730,32.0111,-85.09,91.4,AL,EUFAULA WILDLIFE REF,,
USC00012758,31.445,-86.9533,88.4,AL,EVERGREEN,,
USW00053820,31.4156,-87.0442,78.6,AL,EVERGREEN MIDDLETON FLD,,
US1ALJF0025,33.4885,-86.8923,189.9,AL,FAIRFIELD 1.8 NE,,
US1ALBW0040,30.5072,-87.9083,13.4,AL,FAIRHOPE 1.5 WSW,,
USC00012813,30.5467,-87.8808,7.0,AL,FAIRHOPE 2 NE,HCN,
US1ALBW0071,30.5166,-87.8474,31.7,AL,FAIRHOPE 2.2 E,,
US1ALBW0001,30.5483,-87.8887,32.9,AL,FAIRHOPE 2.3 N,,
USW00063869,30.5486,-87.8758,29.0,AL,FAIRHOPE 3 NE,,
USW00063869,30.5486,-87.8758,29.0,AL,FAIRHOPE 3 NE,,72237
US1ALBW0013,30.5667,-87.9005,34.7,AL,FAIRHOPE 3.7 NNW,,
USC00012840,34.3667,-86.8833,190.5,AL,FALKVILLE 1 E,,
US1ALMG0009,34.3638,-86.8217,253.0,AL,FALKVILLE 5.1 E,,
USC00012883,33.6847,-87.8214,111.3,AL,FAYETTE,,
USC00012883,33.7092,-87.8153,108.8,AL,FAYETTE,,
US1ALDK0017,34.8092,-85.595,492.9,AL,FLAT ROCK 6.3 ENE,,
USW00063870,31.0425,-86.3117,95.7,AL,FLORALA MUNI AP,,
US1ALLD0025,34.835,-87.5697,186.2,AL,FLORENCE 5.4 E,,
US1ALBW0009,30.403,-87.6766,27.1,AL,FOLEY 0.5 ESE,,
US1ALBW0031,30.3789,-87.6975,20.1,AL,FOLEY 2.0 SSW,,
US1ALBW0008,30.3439,-87.7848,13.1,AL,FOLEY 7.4 SW,,
US1ALDK0009,34.4431,-85.7159,274.3,AL,FORT PAYNE 1.4 WSW,,
USC00013105,31.3894,-87.4203,83.8,AL,FRISCO CITY 3 SSW,,
USC00013043,34.4406,-85.7236,279.5,AL,FT PAYNE,,
USC00013154,34.0219,-85.9878,172.2,AL,GADSDEN,,
USW00063857,34.285,-85.9622,351.1,AL,GADSDEN 19 N,,
USW00063857,34.285,-85.9622,351.1,AL,GADSDEN 19 N,,72238
USW00063892,32.8369,-88.1375,32.6,AL,GAINESVILLE 2 NE,,
USC00013160,32.8347,-88.1342,38.1,AL,GAINESVILLE LOCK,HCN,
USC00013251,31.0383,-85.8708,44.2,AL,GENEVA #2,,
USC00013271,31.6772,-86.8061,91.4,AL,GEORGIANA,,
USC00013430,33.6667,-87.1833,106.7,AL,GORGAS 2 ENE,,
USC00013511,32.7019,-87.5817,67.1,AL,GREENSBORO,HCN,
USC00013511,32.6922,-87.5761,75.9,AL,GREENSBORO,HCN,
USW00063893,32.7169,-87.6225,85.3,AL,GREENSBORO 2 WNW,,
USC00013519,31.79,-86.6086,104.2,AL,GREENVILLE,,
USW00063874,31.8456,-86.6108,137.5,AL,GREENVILLE CRENSHAW AP,,
US1ALCK0003,31.6447,-87.854,75.0,AL,GROVE HILL 6.1 SW,,
US1ALMR0001,33.9793,-87.9214,171.0,AL,GUIN 1.1 NW,,
USC00013573,34.3344,-86.3297,176.2,AL,GUNTERSVILLE,,
US1ALMS0018,34.34,-86.2675,313.0,AL,GUNTERSVILLE 1.2 S,,
USW00063866,34.3336,-86.3156,189.0,AL,GUNTERSVILLE 2 SW,,
US1ALMS0011,34.3648,-86.2361,296.9,AL,GUNTERSVILLE 2.0 ENE,,
US1ALMS0029,34.3562,-86.3525,185.0,AL,GUNTERSVILLE 4.7 W,,
USC00013575,34.3347,-86.3294,181.4,AL,GUNTERSVILLE NO.2,,
US1ALMD0002,34.6651,-86.3654,463.0,AL,GURLEY 2.7 S,,
USC00013620,34.2314,-87.6353,280.4,AL,HALEYVILLE,,
USC00013645,34.0967,-87.9914,132.6,AL,HAMILTON 3 S,,
US1ALMD0042,34.6689,-86.4946,193.9,AL,HAMPTON COVE 1.0 NW,,
US1ALMD0033,34.6706,-86.515,429.2,AL,HAMPTON COVE 2.1 WNW,,
USC00013655,34.0675,-86.7917,180.4,AL,HANCEVILLE,,
USC00013655,34.0678,-86.7911,179.8,AL,HANCEVILLE,,
US1ALCM0004,34.0656,-86.7354,185.0,AL,HANCEVILLE 1.6 E,,
US1ALMD0059,34.7856,-86.7114,221.0,AL,HARVEST 5.3 SSE,,
US1ALMD0006,34.9352,-86.5835,246.9,AL,HAZEL GREEN 1.2 NW,,
USC00013761,31.3625,-85.3397,112.8,AL,HEADLAND,,
USC00013775,33.6483,-85.6006,259.1,AL,HEFLIN,,
USC00013775,33.6436,-85.6092,304.8,AL,HEFLIN,,
USC00013781,33.2725,-86.8336,146.3,AL,HELENA,,
USC00013816,31.8814,-86.2503,132.0,AL,HIGHLAND HOME,HCN,
USC00013818,31.9478,-86.3131,169.2,AL,HIGHLAND HOME #2,,
USW00073802,31.9156,-86.3114,187.1,AL,HIGHLAND HOME 2 S,,
US1ALTS0003,33.0786,-87.4009,68.0,AL,HOLT 11.4 SSE,,
USC00013930,33.2533,-87.45,59.4,AL,HOLT L&D,,
USC00013930,33.2533,-87.45,59.4,AL,HOLT LOCK & DAM,,
US1ALJF0047,33.3963,-86.8399,270.1,AL,HOOVER 1.9 NW,,
US1ALMD0090,34.733,-86.5713,223.1,AL,HUNTSVILLE 3.7 ENE,,
US1ALMD0004,34.647,-86.553,209.1,AL,HUNTSVILLE 5.9 SE,,
USW00003856,34.6439,-86.7861,190.2,AL,HUNTSVILLE INTL AP,,72323
USC00014080,32.2464,-85.4142,122.5,AL,HURTSBORO,,
USC00014080,32.2467,-85.4142,122.5,AL,HURTSBORO,,
USC00014193,31.5253,-87.9278,67.1,AL,JACKSON,,
US1ALWS0001,31.5095,-87.96,39.0,AL,JACKSON 4.3 WSW,,
USC00014209,33.8164,-85.7661,209.7,AL,JACKSONVILLE,,
USC00014209,33.8258,-85.7811,192.0,AL,JACKSONVILLE,,
USC00014226,33.9047,-87.3153,148.1,AL,JASPER,,
USC00014274,32.3236,-86.7828,44.5,AL,JONES BLUFF L&D,,
USC00014306,32.6189,-86.2544,88.4,AL,JORDAN DAM,,
USC00014431,31.2403,-86.1947,82.3,AL,KINSTON,,
US1ALMG0012,34.4907,-86.6328,394.1,AL,LACEY'S SPRING 3.4 SSW,,
USC00014502,32.9069,-85.4336,225.6,AL,LAFAYETTE 2W,,
US1ALSH0048,33.4198,-86.6378,291.7,AL,LAKE PURDY 2.6 ESE,,
US1ALSH0014,33.4446,-86.6212,310.9,AL,LAKE PURDY 3.6 ENE,,
USC00014603,32.9633,-86.5203,128.0,AL,LAY DAM,,
USC00014619,33.5444,-86.5275,193.9,AL,LEEDS,,
USC00014619,33.5228,-86.58,182.9,AL,LEEDS,,
USC00010260,34.9628,-87.3719,231.6,AL,LEXINGTON,,
USC00014798,32.5811,-88.1897,39.0,AL,LIVINGSTON,,
USC00014866,33.4258,-86.3386,137.2,AL,LOGAN MARTIN DAM,,
US1ALBW0026,30.6216,-87.7578,60.0,AL,LOXLEY 0.4 SSW,,
US1ALMD0050,34.727,-86.7453,235.9,AL,MADISON 1.7 N,,
US1ALLS0026,34.7098,-86.8057,214.0,AL,MADISON 3.2 W,,
US1ALMD0071,34.7857,-86.7375,237.7,AL,MADISON 5.8 N,,
USC00015112,32.7028,-87.2681,52.4,AL,MARION 7 NE,,
USC00015116,32.4444,-87.1797,61.6,AL,MARION JUNCTION 2 E,,
USC00015121,32.4714,-87.2314,61.0,AL,MARION JUNCTION 2 NE,,
USC00015140,32.6667,-85.9167,103.6,AL,MARTIN DAM,,
USW00013821,32.3833,-86.35,64.0,AL,MAXWELL FLD,,
US1ALSH0011,33.3986,-86.6673,239.0,AL,MEADOWBROOK 1.7 E,,
US1ALCE0001,34.4811,-85.5221,476.4,AL,MENTONE 6.9 SSE,,
USC00015397,32.0597,-85.4953,151.8,AL,MIDWAY,,
USC00015397,32.0347,-85.4739,125.6,AL,MIDWAY,,
US1ALEL0024,32.5149,-86.3851,117.0,AL,MILLBROOK 1.7 NW,,
US1ALEL0004,32.5504,-86.3845,120.1,AL,MILLBROOK 4.0 NNW,,
USC00015420,32.1003,-87.3983,35.1,AL,MILLERS FERRY L&D,,
USC00015439,32.4419,-85.8889,65.5,AL,MILSTEAD,,
USC00015465,32.8044,-86.4464,106.7,AL,MITCHELL DAM,,
USW00013894,30.6794,-88.2397,63.4,AL,MOBILE,,72223
US1ALMB0049,30.671,-88.108,10.1,AL,MOBILE 1.2 WSW,,
US1ALMB0004,30.69,-88.13,30.5,AL,MOBILE 2.6 WNW,,
US1ALMB0060,30.7363,-88.1818,55.5,AL,MOBILE 5.0 WNW,,
USW00013838,30.6264,-88.0681,7.9,AL,MOBILE DWTN AP,,
USC00015537,33.0981,-86.8658,125.0,AL,MONTEVALLO,,
US1ALMY0011,32.1678,-86.2933,89.0,AL,MONTGOMERY 12.9 S,,
US1ALMY0007,32.3772,-86.2575,94.5,AL,MONTGOMERY 2.2 NE,,
USC00015553,32.26,-86.2181,68.6,AL,MONTGOMERY 6SW,,
USW00013895,32.2997,-86.4075,61.6,AL,MONTGOMERY AP,,72226
US1ALSC0006,33.5834,-86.4633,212.8,AL,MOODY 2.0 ESE,,
USC00015635,34.4883,-87.2989,189.6,AL,MOULTON 2,,
USC00015658,32.9964,-87.6319,36.6,AL,MOUNDVILLE,,
US1ALJF0057,33.5121,-86.7428,222.8,AL,MOUNTAIN BROOK 1.7 N,,
US1ALCT0004,34.7293,-87.6472,154.8,AL,MUSCLE SHOALS 1.3 SSW,,
USW00063894,34.7728,-87.64,161.5,AL,MUSCLE SHOALS 2 N,,
USC00015752,34.7889,-87.5394,162.8,AL,MUSCLE SHOALS 3 NE,,
US1ALCT0014,34.7754,-87.4736,196.9,AL,MUSCLE SHOALS 9.7 NNE,,
USW00013896,34.7442,-87.5997,164.6,AL,MUSCLE SHOALS RGNL AP,HCN,
USC00015751,34.7586,-87.6411,164.6,AL,MUSCLE SHOALS WTP,,
USW00073801,33.2125,-87.5914,45.7,AL,NORTHPORT 2 S,,
USC00016000,33.3264,-86.7561,176.8,AL,OAK MTN STATE PARK HQ,,
USC00016001,33.7222,-87.3831,109.7,AL,OAKMAN,,
USC00016121,33.9478,-86.4692,271.9,AL,ONEONTA,,
USC00016121,33.9264,-86.4211,335.3,AL,ONEONTA,,
US1ALBL0013,33.9153,-86.3464,419.4,AL,ONEONTA 7.5 ESE,,
USC00016129,32.6592,-85.4492,195.1,AL,OPELIKA,,
USC00016196,34.5528,-86.445,179.8,AL,OWENS CROSS ROADS 3S,,
USC00016246,33.745,-86.6417,220.1,AL,PALMERDALE,,
USC00016334,32.2258,-88.0281,25.9,AL,PENNINGTON 2 NE,,
US1ALRS0001,32.4948,-85.0295,124.1,AL,PHENIX CITY 2.2 NNW,,
USC00016436,31.8817,-86.9861,80.8,AL,PINE APPLE,,
USC00016436,31.8811,-86.9864,80.8,AL,PINE APPLE,,
USC00016478,33.6906,-86.685,185.3,AL,PINSON,,
US1ALJC0016,34.6863,-85.8796,390.1,AL,PISGAH 1.8 W,,
USC00016508,32.6131,-86.9056,70.1,AL,PLANTERSVILLE 2 SSE,,
US1ALMG0017,34.5148,-86.9146,249.6,AL,PRICEVILLE 1.8 WSW,,
USC00016760,33.7075,-86.1844,146.3,AL,RAGLAND 2 SSW,,
US1ALDK0012,34.4719,-85.8429,365.8,AL,RAINSVILLE 1.9 S,,
US1ALMY0006,32.0323,-86.2056,158.8,AL,RAMER 1.5 SE,,
USC00016847,33.3753,-88.02,72.5,AL,REFORM,,
USC00016847,33.3739,-88.0053,70.1,AL,REFORM,,
US1ALRN0002,33.2034,-85.3485,253.0,AL,ROANOKE 4.2 NNE,,
USC00016988,30.5653,-87.7017,49.1,AL,ROBERTSDALE,,
USC00017025,33.1581,-85.2911,228.6,AL,ROCK MILLS,,
USC00017020,32.8711,-86.1758,182.9,AL,ROCKFORD 3 ESE,,
USC00017131,34.51,-87.7319,253.0,AL,RUSSELLVILLE #2,,
USW00063895,34.4536,-87.7103,219.5,AL,RUSSELLVILLE 4 SSE,,
USC00017131,34.51,-87.7319,253.0,AL,RUSSELLVILLE NO 2,,
USC00017157,34.1736,-86.8133,243.8,AL,SAINT BERNARD,HCN,
USC00017207,34.2878,-85.9681,362.7,AL,SAND MT SUBSTN,,
USC00017304,34.6736,-86.0536,187.5,AL,SCOTTSBORO,HCN,
USW00063896,34.6942,-85.9997,193.9,AL,SCOTTSBORO 2 NE,,
USC00017326,32.3217,-85.1683,129.5,AL,SEALE,,
USC00017326,32.4122,-85.1794,121.9,AL,SEALE,,
USC00017366,32.4111,-87.0144,44.8,AL,SELMA,HCN,
US1ALDS0001,32.4042,-87.0546,46.0,AL,SELMA 1.5 WSW,,
USW00063858,32.4567,-87.2422,58.8,AL,SELMA 13 WNW,,
USW00063858,32.4567,-87.2422,58.8,AL,SELMA 13 WNW,,72236
USW00063897,32.335,-86.9786,47.9,AL,SELMA 6 SSE,,
US1ALCT0005,34.7655,-87.6813,167.0,AL,SHEFFIELD 1.3 ENE,,
US1ALMG0014,34.4552,-86.7744,191.1,AL,SOMERVILLE 2.0 SE,,
US1ALBL0005,33.8029,-86.5601,326.1,AL,SPRINGVILLE 5.3 WNW,,
USC00017947,33.8997,-88.1325,106.7,AL,SULLIGENT,,
USC00017947,33.9158,-88.1014,122.8,AL,SULLIGENT,,
USC00017999,33.2053,-86.2114,149.4,AL,SYLACAUGA 4 NE,,
US1ALDK0008,34.5346,-85.7563,396.8,AL,SYLVANIA 3.4 ESE,,
USC00018024,33.4164,-86.135,136.6,AL,TALLADEGA,HCN,
USW00073803,33.5722,-86.0572,160.0,AL,TALLADEGA 10 NNE,,
US1ALTG0011,33.5367,-86.185,146.0,AL,TALLADEGA 8.8 NW,,
USC00018038,32.4392,-86.2025,53.9,AL,TALLAPOOSA WTP,,
USC00018038,32.4392,-86.2025,53.9,AL,TALLAPOOSA WTR PLT,,
USC00018178,31.9172,-87.7347,118.9,AL,THOMASVILLE,HCN,
USW00023802,31.8814,-87.7367,106.7,AL,THOMASVILLE 2 S,,
USC00018209,32.9206,-86.6708,207.3,AL,THORSBY EXP STN,,
US1ALMB0001,30.6079,-88.2585,53.9,AL,TILLMANS CORNER 4.3 WNW,,
US1ALMB0063,30.6117,-88.3342,26.2,AL,TILLMANS CORNER 8.7 WNW,,
USC00018323,31.8075,-85.9722,165.2,AL,TROY,HCN,
USW00023801,31.79,-86.0003,143.9,AL,TROY 2 W,,
USW00003878,31.8606,-86.0122,121.0,AL,TROY MUNI AP,,
US1ALJF0053,33.6523,-86.6167,312.1,AL,TRUSSVILLE 1.8 NW,,
US1ALTS0004,33.1853,-87.4979,128.9,AL,TUSCALOOSA 4.4 SE,,
USC00018380,33.2119,-87.6161,51.5,AL,TUSCALOOSA ACFD,HCN,
USC00018380,33.2119,-87.6161,51.5,AL,TUSCALOOSA ACFD,,
USW00093806,33.2119,-87.6161,45.7,AL,TUSCALOOSA MUNI AP,,
USW00093806,33.2119,-87.6161,45.7,AL,TUSCALOOSA MUNI AP,HCN,
USC00018385,33.2097,-87.5936,46.3,AL,TUSCALOOSA OLIVER DAM,,
US1ALCT0001,34.6224,-87.7941,236.2,AL,TUSCUMBIA 8.9 SW,,
US1ALMC0003,32.4481,-85.8172,120.7,AL,TUSKEGEE 6.2 W,,
US1ALMS0020,34.4222,-86.5691,286.5,AL,UNION GROVE 7.2 WNW,,
USC00018438,32.0142,-85.7464,134.1,AL,UNION SPRINGS 9 S,HCN,
USC00018469,34.5667,-85.6128,323.7,AL,VALLEY HEAD,HCN,
USC00018469,34.5686,-85.6064,341.7,AL,VALLEY HEAD,HCN,
USW00063862,34.5653,-85.6172,310.9,AL,VALLEY HEAD 1 SSW,,
USC00018517,33.7392,-88.1275,90.8,AL,VERNON,,
USC00018809,33.1186,-87.1267,152.4,AL,W BLOCTON,,
USC00018605,33.1167,-85.5667,205.7,AL,WADLEY,,
USC00018608,33.1361,-85.5869,216.4,AL,WADLEY NR 2,,
USC00018637,31.21,-87.1789,62.5,AL,WALLACE 2 E,,
USC00018648,34.0661,-86.3069,259.1,AL,WALNUT GROVE,,
USC00018653,32.7028,-85.8936,125.0,AL,WALNUT HILL 3 W,,
USC00018673,32.7744,-87.8306,33.5,AL,WARRIOR L&D,,
USC00018673,32.7747,-87.8306,33.5,AL,WARRIOR L&D,,
USW00063872,31.9514,-85.1289,86.9,AL,WEEDON FLD AP,,
USC00018755,34.1322,-85.7925,179.8,AL,WEISS DAM,,
USC00018809,33.1186,-87.1267,152.4,AL,WEST BLOCTON,,
USC00018812,34.2447,-86.9586,293.2,AL,WEST POINT,,
USC00018859,32.5906,-86.2103,78.3,AL,WETUMPKA,,
USC00018859,32.5936,-86.1664,97.2,AL,WETUMPKA,,
US1ALEL0022,32.5741,-86.2877,58.8,AL,WETUMPKA 5.4 WNW,,
US1ALEL0018,32.6784,-86.1402,171.6,AL,WETUMPKA 9.9 NNE,,
USC00018867,31.6508,-87.7097,51.8,AL,WHATLEY,,
US1ALMB0024,30.737,-88.274,71.9,AL,WILMER 7.9 SE,,
USC00018998,33.9111,-87.8475,142.6,AL,WINFIELD 2 SW,,
USC00018998,33.9108,-87.8469,158.5,AL,WINFIELD 2 SW,,
US1ALJC0012,34.7345,-86.21,463.0,AL,WOODVILLE 8.0 NNE,,
USC00030006,35.0764,-94.2025,190.2,AR,ABBOTT,,
USC00030006,35.0236,-94.1594,207.3,AR,ABBOTT,,
USC00030064,35.9289,-91.0583,76.8,AR,ALICIA 2NNE,,
USC00030064,35.9308,-91.055,78.6,AR,ALICIA 2NNE,,
USC00030130,34.7961,-92.8417,212.8,AR,ALUM FK,,
USC00030130,34.7961,-92.8417,212.8,AR,ALUM FORK,,
USC00030150,34.2686,-93.4697,158.5,AR,AMITY,,
USC00030150,34.2808,-93.4614,140.2,AR,AMITY 1N,,
USC00030178,34.0275,-93.4333,91.4,AR,ANTOINE 1 SW,,
USC00030220,34.1433,-93.0589,59.7,AR,ARKADELPHIA 2 N,,
USC00030234,33.6061,-91.2186,44.2,AR,ARKANSAS CITY,,
USC00030234,33.6378,-91.2119,51.8,AR,ARKANSAS CITY,,
USC00030240,34.025,-91.3444,59.1,AR,ARKANSAS POST,,
US1ARSH0019,36.2407,-91.5922,172.8,AR,ASH FLAT 1.3 NE,,
USC00030286,33.6194,-94.0994,97.5,AR,ASHDOWN 4 SSE,,
USC00030300,34.3253,-93.9811,292.6,AR,ATHENS,,
USC00030326,35.2894,-91.3533,59.4,AR,AUGUSTA,,
US1ARLK0001,34.9646,-91.9657,90.8,AR,AUSTIN 2.5 SSE,,
USW00023904,35.82,-91.7811,138.7,AR,BATESVILLE 8 WNW,,
USW00023904,35.82,-91.7811,138.7,AR,BATESVILLE 8 WNW,,72245
USC00030460,35.76,-91.6389,88.4,AR,BATESVILLE L&D 1,,
USC00030460,35.7594,-91.6383,88.4,AR,BATESVILLE L&D 1,,
USC00030458,35.8306,-91.7944,174.0,AR,BATESVILLE LVSTK,,
US1ARVB0011,35.4755,-92.3039,231.3,AR,BEE BRANCH 5.4 ENE,,
USC00030536,35.4583,-91.0561,73.2,AR,BEEDEVILLE 4 NE,,
USC00030536,35.4586,-91.0567,67.7,AR,BEEDEVILLE 4 NE,,
US1ARBT0003,36.4691,-94.2576,331.9,AR,BELLA VISTA 2.0 E,,
USC00030582,34.5675,-92.6006,94.5,AR,BENTON,,
US1ARSL0023,34.536,-92.7651,130.1,AR,BENTON 10.9 WSW,,
USC00030586,36.3219,-94.215,371.9,AR,BENTONVILLE 4 S,,
US1ARBT0045,36.2788,-94.2437,376.4,AR,BENTONVILLE 6.6 SSW,,
USC00030618,36.3603,-93.5514,359.7,AR,BERRYVILLE,,
USC00030616,36.4294,-93.6256,359.7,AR,BERRYVILLE 5 NW,,
USC00030664,34.4619,-93.9983,365.8,AR,BIG FK 1 SSE,,
USC00030664,34.4619,-93.9983,365.8,AR,BIG FORK 1 SSE,,
USC00030746,36.1067,-91.1039,73.2,AR,BLACK ROCK,,
USC00030746,36.1367,-91.1172,101.8,AR,BLACK ROCK,,
USC00030764,34.5697,-93.1947,129.8,AR,BLAKELY MTN DAM,,
USC00030798,35.1161,-93.6506,129.8,AR,BLUE MTN DAM,,
USC00030806,35.9239,-89.9044,76.8,AR,BLYTHEVILLE,,
USW00053869,35.9403,-89.8308,77.7,AR,BLYTHEVILLE MUNI AP,,
USC00030814,34.3267,-94.4122,358.1,AR,BOGG SPRINGS,,
USC00030820,34.3897,-93.2822,181.1,AR,BONNERDALE 5 E,,
USC00030832,35.0931,-93.9258,182.9,AR,BOONEVILLE 3 SSE,,
USC00030842,35.7264,-92.4672,387.4,AR,BOTKINBURG 3 NE,,
US1ARLF0003,33.1181,-93.7902,62.5,AR,BRADLEY 7.8 W,,
USC00030936,34.8822,-91.2153,56.4,AR,BRINKLEY,HCN,
USC00031021,36.3694,-92.5772,224.0,AR,BULL SHOALS 1 S,,
US1ARCR0002,36.4636,-93.8235,318.5,AR,BUSCH 0.4 E,,
USC00031102,34.9817,-92.0064,91.4,AR,CABOT,,
USC00031120,36.0214,-91.3783,88.4,AR,CALAMINE,,
US1ARIZ0003,36.1387,-92.1254,195.7,AR,CALICO ROCK 0.8 NNE,,
US1ARIZ0002,36.1298,-92.1028,159.7,AR,CALICO ROCK 1.6 E,,
USC00031132,36.1092,-92.1636,106.7,AR,CALICO ROCK 2 WSW,,
USC00031140,33.3111,-92.485,30.5,AR,CALION L&D,,
USC00031140,33.3064,-92.4833,23.5,AR,CALION L&D,,
USC00031152,33.59,-92.8236,35.4,AR,CAMDEN 1,,
USC00031191,33.9153,-91.7711,79.2,AR,CANE CREEK SP,,
USC00031310,35.3353,-92.5653,203.9,AR,CENTER RIDGE 3 S,,
USC00031310,35.3228,-92.5672,195.1,AR,CENTER RIDGE 4 S,,
USC00031328,35.1125,-93.1661,103.6,AR,CENTERVILLE,,
USC00031328,35.0931,-93.1047,97.5,AR,CENTERVILLE 4 SE,,
US1ARFR0002,35.2965,-94.0174,160.6,AR,CHARLESTON 1.7 E,,
USC00031419,35.6111,-92.5614,350.5,AR,CHIMES 12 ESE,,
USC00031442,34.68,-91.2208,54.9,AR,CLARENDON,,
USC00031442,34.6986,-91.3036,54.6,AR,CLARENDON,,
USC00031455,35.4833,-93.45,138.4,AR,CLARKSVILLE,,
USC00031459,35.4564,-93.4425,189.0,AR,CLARKSVILLE 2,,
USC00031459,35.5,-93.4728,136.6,AR,CLARKSVILLE 2N,,
USC00031457,35.5328,-93.4036,259.1,AR,CLARKSVILLE 6 NE,,
USC00031492,35.5836,-92.4511,173.7,AR,CLINTON,,
USC00031508,35.4364,-93.6717,142.0,AR,COAL HILL,,
USC00031596,35.0833,-92.4294,96.0,AR,CONWAY,HCN,
USC00031596,35.1033,-92.4903,95.1,AR,CONWAY,HCN,
US1ARFK0011,35.0489,-92.4415,120.4,AR,CONWAY 2.8 SSE,,
USC00031632,36.4197,-90.5858,91.4,AR,CORNING,HCN,
USC00031666,34.4314,-94.4175,323.1,AR,COVE,,
USC00031730,33.1111,-91.9481,54.9,AR,CROSSETT 2 SSE,,
US1ARAS0001,33.16,-91.9464,40.5,AR,CROSSETT 2.5 NNE,,
USC00031750,34.6886,-92.45,108.2,AR,CRYSTAL VALLEY,,
USC00031769,35.8739,-91.8406,213.7,AR,CUSHMAN 4 W,,
USC00031829,35.4033,-92.3828,207.3,AR,DAMASCUS 2 NNE,,
USC00031834,35.0375,-93.3947,114.3,AR,DANVILLE,,
USC00031838,35.2342,-93.1675,112.8,AR,DARDANELLE,,
USW00053925,34.05,-94.4008,108.2,AR,DE QUEEN SEVIER CO AP,,
US1ARBT0012,36.3275,-94.413,419.4,AR,DECATUR 2.6 ESE,,
USC00031900,35.8272,-93.2044,723.9,AR,DEER,,
USC00031910,34.2531,-93.1486,149.4,AR,DEGRAY LAKE SP,,
US1ARPK0001,34.0331,-93.5069,107.9,AR,DELIGHT 0.3 NNW,,
US1ARPK0003,34.0417,-93.5418,147.2,AR,DELIGHT 2.2 WNW,,
USC00031935,35.7214,-92.6961,530.4,AR,DENNARD 10 WSW,,
USC00031948,34.0464,-94.3481,124.1,AR,DEQUEEN,,
USC00031962,33.5597,-91.385,44.2,AR,DERMOTT 3 NE,,
USC00031968,34.9772,-91.4978,61.0,AR,DES ARC,,
USC00031980,35.78,-94.2517,408.4,AR,DEVILS DEN SP,,
USC00032015,34.1267,-94.0172,143.3,AR,DIERKS,,
USC00032020,34.1475,-94.0889,209.1,AR,DIERKS DAM,,
USC00032148,33.8847,-91.5317,49.7,AR,DUMAS,,
USC00032148,33.8886,-91.5317,49.7,AR,DUMAS,,
USW00093992,33.2208,-92.8142,76.8,AR,EL DORADO S AR RGNL AP,,
US1ARWS0036,35.9996,-94.0099,366.7,AR,ELKINS 1.7 SE,,
USC00032355,33.1144,-91.2628,41.1,AR,EUDORA,,
USC00032356,36.4164,-93.7917,432.8,AR,EUREKA SPRINGS 3 WNW,HCN,
USC00032366,36.0717,-91.6169,152.4,AR,EVENING SHADE 1 NNE,,
USC00032366,36.0803,-91.6147,156.7,AR,EVENING SHADE 1 NNE,,
USW00093993,36.0097,-94.1694,381.3,AR,FAYETTEVILLE DRAKE FLD,,
USC00032444,36.1006,-94.1744,387.1,AR,FAYETTEVILLE EXP STN,HCN,
USC00032444,36.1011,-94.1736,387.1,AR,FAYETTEVILLE EXP STN,HCN,
USW00053922,36.2833,-94.3,392.3,AR,FAYETTEVILLE NW AR AP,,
USC00032475,33.0597,-92.1236,18.3,AR,FELSENTHAL L&D,,
USC00032540,33.8228,-92.3989,70.1,AR,FORDYCE,,
US1ARDL0001,33.9048,-92.461,84.1,AR,FORDYCE 6.6 NNW,,
USC00032544,33.7222,-94.3975,128.9,AR,FOREMAN,,
US1ARML0011,33.2819,-93.7976,66.1,AR,FOUKE 5.3 ENE,,
USW00013964,35.3331,-94.3625,136.9,AR,FT SMITH RGNL AP,GSN,72344
USC00032670,33.6128,-93.8136,79.2,AR,FULTON,,
USC00032700,36.4153,-92.2456,227.1,AR,GAMALIEL,,
USC00032700,36.4811,-92.2442,196.6,AR,GAMALIEL 2 NW,,
USC00032760,35.1261,-91.4533,61.0,AR,GEORGETOWN,,
USC00032794,35.9914,-92.7147,189.0,AR,GILBERT,,
USC00032794,35.9886,-92.7161,184.7,AR,GILBERT,,
USC00032842,34.3217,-93.5617,178.3,AR,GLENWOOD,,
USC00032842,34.3856,-93.5108,179.8,AR,GLENWOOD 4 NNE,,
USC00032922,34.8869,-93.6847,143.0,AR,GRAVELLY,,
USC00032922,34.8758,-93.6761,140.5,AR,GRAVELLY 1 ESE,,
USC00032930,36.4261,-94.4481,384.0,AR,GRAVETTE,HCN,
USC00032946,36.3392,-93.4278,414.5,AR,GREEN FOREST,,
USC00032962,35.2353,-92.3619,100.6,AR,GREENBRIER,,
USC00032962,35.2414,-92.3636,103.0,AR,GREENBRIER,,
US1ARFK0017,35.2596,-92.4054,131.4,AR,GREENBRIER 2.4 NNW,,
US1ARFK0016,35.2277,-92.4324,121.9,AR,GREENBRIER 2.8 W,,
US1ARSB0004,35.21,-94.26,154.2,AR,GREENWOOD 1.4 W,,
US1ARSB0008,35.2267,-94.2632,202.7,AR,GREENWOOD 1.9 WNW,,
USC00032978,35.5206,-91.9997,160.6,AR,GREERS FERRY DAM,,
USC00033019,35.68,-91.1653,72.8,AR,GRUBBS 5NW,,
US1ARCN0003,33.479,-92.3705,61.0,AR,HAMPTON 6.8 SE,,
USC00033132,36.2747,-91.5056,121.9,AR,HARDY,,
US1ARSH0017,36.1682,-91.511,132.3,AR,HARDY 10.7 S,,
US1ARSH0011,36.2084,-91.5115,175.0,AR,HARDY 8.0 SSW,,
USC00033164,36.1956,-93.1061,345.0,AR,HARRISON,,
USW00013971,36.2667,-93.1567,418.8,AR,HARRISON BOONE CO AP,,72345
USC00033200,35.2872,-92.7875,109.7,AR,HATTIEVILLE,,
USC00033200,35.3383,-92.8492,103.6,AR,HATTIEVILLE 5 NW,,
USC00033229,35.5128,-91.9956,94.5,AR,HEBER SPRINGS 2 NE,,
USC00033242,34.5211,-90.59,59.4,AR,HELENA,,
USC00033361,36.2769,-93.8214,435.9,AR,HINDSVILLE 10NNE,,
US1ARCR0008,36.4671,-93.737,433.1,AR,HOLIDAY ISLAND 1.3 SSW,,
US1ARHM0005,33.6563,-93.5983,101.5,AR,HOPE 0.9 SSW,,
USC00033428,33.7089,-93.5561,114.3,AR,HOPE 3 NE,,
USC00033428,33.7092,-93.5564,114.3,AR,HOPE 3 NE,,
USC00033438,34.3608,-93.6817,219.5,AR,HOPPER,,
USC00033442,33.935,-94.3586,102.7,AR,HORATIO,,
USC00033442,33.9353,-94.3597,102.7,AR,HORATIO,,
USC00033466,34.5128,-93.0486,190.8,AR,HOT SPRINGS 1 NNE,,
US1ARGL0016,34.4601,-93.0496,158.8,AR,HOT SPRINGS 2.3 S,,
USW00003962,34.29,-93.06,163.1,AR,HOT SPRINGS ASOS,,
US1ARGL0004,34.6647,-92.9792,281.3,AR,HOT SPRINGS VILLAGE 1.2 E,,
US1ARPY0002,34.9631,-92.7072,94.2,AR,HOUSTON 5.0 S,,
USC00033544,36.07,-93.7522,543.5,AR,HUNTSVILLE 1 SSW,,
US1ARNW0013,35.9698,-93.1381,653.2,AR,JASPER 3.8 SE,,
USC00033704,34.6719,-93.0747,247.2,AR,JESSIEVILLE,,
USC00033704,34.6719,-93.0747,246.0,AR,JESSIEVILLE,,
USC00033734,35.8489,-90.6589,94.5,AR,JONESBORO 2 NE,,
USW00003953,35.8311,-90.6464,79.9,AR,JONESBORO MUNI AP,,
USC00033821,35.6872,-90.0964,70.7,AR,KEISER,,
USC00033831,33.7703,-91.2731,44.2,AR,KELSO,,
USC00033862,34.6033,-91.9928,70.4,AR,KEO,,
USC00033909,36.0086,-93.5206,653.8,AR,KINGSTON 2S,,
USC00033910,36.1197,-93.5772,408.4,AR,KINGSTON 5NW,,
US1ARGN0006,36.2086,-90.5347,102.7,AR,LAFE 1.8 W,,
USC00034010,34.8511,-92.4889,93.0,AR,LAKE MAUMELLE,,
USC00034060,34.3119,-93.8439,235.0,AR,LANGLEY,,
USC00034106,36.4194,-92.9158,253.0,AR,LEAD HILL,,
USC00034134,34.1742,-92.5947,77.7,AR,LEOLA,,
US1ARST0011,35.8674,-92.3777,518.8,AR,LESLIE 10.3 ENE,,
USC00034185,33.3614,-93.5675,103.6,AR,LEWISVILLE,,
USW00003952,34.8364,-92.2619,173.1,AR,LITTLE ROCK,,72340
US1ARPS0005,34.7537,-92.3527,114.9,AR,LITTLE ROCK 2.2 N,,
US1ARPS0056,34.7786,-92.3393,186.5,AR,LITTLE ROCK 4.0 NNE,,
US1ARPS0024,34.766,-92.406,142.3,AR,LITTLE ROCK 4.2 NW,,
USW00003930,34.9167,-92.15,103.0,AR,LITTLE ROCK AFB,,
USW00013963,34.7272,-92.2389,78.6,AR,LITTLE ROCK AP ADAMS FLD,,
USC00034290,35.5194,-93.1972,174.0,AR,LONG POOL,,
USC00034528,35.0264,-90.7347,91.4,AR,MADISON 1 NW,,
USC00034548,33.295,-93.2325,99.1,AR,MAGNOLIA,,
USC00034548,33.2586,-93.1822,113.4,AR,MAGNOLIA,,
USC00034562,34.3947,-92.8364,91.4,AR,MALVERN,,
USC00034572,36.4947,-91.535,153.0,AR,MAMMOTH SPRING,HCN,
USC00034625,34.8808,-92.3486,82.9,AR,MARCHE,,
USC00034638,34.7392,-90.7664,71.3,AR,MARIANNA 2 S,,
USC00034666,35.9156,-92.6394,308.8,AR,MARSHALL,,
USC00034666,35.9117,-92.6564,289.9,AR,MARSHALL,,
US1ARPS0054,34.8446,-92.3996,93.6,AR,MAUMELLE 0.8 SE,,
USC00034711,35.2539,-91.1892,59.7,AR,MCCRORY,,
USC00034708,33.6339,-91.3883,42.7,AR,MCGEHEE 1 NE,,
USC00034746,36.0822,-91.9822,152.4,AR,MELBOURNE 5W,,
USC00034756,34.5731,-94.2494,344.4,AR,MENA,HCN,
USC00034756,34.5978,-94.29,351.1,AR,MENA,HCN,
US1ARPL0006,34.5966,-94.2296,356.9,AR,MENA 1.2 NNE,,
USC00034777,35.0958,-94.3547,164.6,AR,MIDLAND,,
US1ARBX0010,36.3867,-92.4975,254.2,AR,MIDWAY 2.0 W,,
USC00034839,33.6772,-93.9903,96.3,AR,MILLWOOD DAM,,
US1ARDR0009,33.6309,-91.82,65.8,AR,MONTICELLO 1.6 WNW,,
USW00053919,33.6361,-91.7556,88.4,AR,MONTICELLO MUNI AP,,
USC00034936,33.3014,-92.3658,27.4,AR,MORO BAY SP,,
USC00034938,35.1581,-92.7672,103.6,AR,MORRILTON,,
US1ARCW0007,35.1236,-92.9025,285.9,AR,MORRILTON 9.4 WSW,,
USW00053921,34.5467,-93.5781,214.0,AR,MOUNT IDA ASOS,,
US1ARBX0002,36.393,-92.302,230.1,AR,MOUNTAIN HOME 5.8 NE,,
USW00053918,36.3689,-92.4703,282.9,AR,MOUNTAIN HOME BAXTER AP,,
US1ARST0002,35.8643,-92.1106,232.6,AR,MOUNTAIN VIEW 0.4 S,,
US1ARST0025,35.8121,-91.8957,160.3,AR,MOUNTAIN VIEW 12.7 ESE,,
US1ARST0023,35.8715,-92.3435,294.7,AR,MOUNTAIN VIEW 13.0 W,,
US1ARST0012,35.8592,-92.0467,128.0,AR,MOUNTAIN VIEW 3.7 ESE,,
US1ARST0010,35.8209,-92.0378,514.8,AR,MOUNTAIN VIEW 5.3 SE,,
US1ARST0016,35.8823,-92.209,237.1,AR,MOUNTAIN VIEW 5.5 W,,
US1ARST0015,35.8032,-92.1812,427.9,AR,MOUNTAIN VIEW 6.1 SW,,
US1ARST0026,35.8593,-92.2271,297.8,AR,MOUNTAIN VIEW 6.5 W,,
US1ARST0020,35.9324,-92.2192,163.4,AR,MOUNTAIN VIEW 7.4 NW,,
US1ARST0022,35.947,-92.2358,237.7,AR,MOUNTAIN VIEW 8.8 NW,,
USC00035018,35.6494,-94.1542,241.7,AR,MOUNTAINBURG 2 NE,,
USC00034988,34.5408,-93.5878,212.4,AR,MT IDA 3 SE,,
USC00034989,34.5061,-93.6256,269.1,AR,MT IDA 4S,,
USC00035036,36.3458,-92.3939,243.8,AR,MTN HOME 1 NNW,,
USC00035046,35.8444,-92.0978,218.2,AR,MTN VIEW,,
USC00035079,34.0783,-93.7019,140.2,AR,MURFREESBORO 1W,,
USC00035112,33.9294,-93.8583,121.9,AR,NASHVILLE,,
USC00035112,33.9292,-93.8508,121.9,AR,NASHVILLE,,
USC00035160,35.5756,-94.3811,228.6,AR,NATURAL DAM,,
USC00035177,34.1469,-93.8936,192.0,AR,NEWHOPE 6 S,,
USC00035186,35.6042,-91.2744,69.5,AR,NEWPORT,HCN,
USC00035200,34.9553,-93.1594,146.3,AR,NIMROD DAM,,
US1ARBX0036,36.2247,-92.2874,128.3,AR,NORFORK 1.2 NNW,,
US1ARPS0016,34.7892,-92.2341,107.3,AR,NORTH LITTLE ROCK 1.2 E,,
US1ARPS0011,34.8091,-92.2439,128.0,AR,NORTH LITTLE ROCK 1.6 NNE,,
US1ARPS0058,34.824,-92.2531,155.4,AR,NORTH LITTLE ROCK 2.5 N,,
US1ARPS0052,34.8222,-92.2338,112.8,AR,NORTH LITTLE ROCK 2.6 NNE,,
USC00035354,35.7803,-94.4161,457.2,AR,ODELL 2 N,,
USC00035358,34.6008,-93.7667,243.8,AR,ODEN 1 SE,,
USC00035376,33.7667,-93.9167,91.4,AR,OKAY,,
USC00035428,36.4311,-93.2044,420.3,AR,OMAHA 2S.,,
USC00035498,34.6133,-92.7742,176.8,AR,OWENSVILLE 3E,,
USC00035508,35.4833,-93.8167,118.9,AR,OZARK,,
USC00035512,35.5125,-93.8683,253.0,AR,OZARK 2,HCN,
US1ARFR0003,35.43,-93.84,149.4,AR,OZARK 4.6 S,,
USC00035514,35.6464,-93.4347,587.7,AR,OZONE,,
USC00035563,36.0336,-90.4978,82.3,AR,PARAGOULD 1S,,
USC00035591,34.7844,-93.9786,184.7,AR,PARKS,,
USC00035591,34.8442,-93.8653,271.3,AR,PARKS 6 ENE,,
US1ARSC0003,34.8442,-93.8652,227.7,AR,PARKS 6.2 ENE,,
USC00035691,35.0442,-92.7956,91.4,AR,PERRY,,
USC00035754,34.2256,-92.0189,65.5,AR,PINE BLUFF,HCN,
USC00035754,34.2256,-92.0186,70.1,AR,PINE BLUFF,HCN,
US1ARJF0004,34.189,-92.0386,68.6,AR,PINE BLUFF 2.0 SW,,
USW00093988,34.175,-91.9347,63.1,AR,PINE BLUFF GRIDER FLD,,
USC00035760,34.5833,-93.9011,256.0,AR,PINE RIDGE,,
USC00035770,34.1728,-93.205,115.8,AR,PINEY GROVE,,
US1ARST0013,35.8258,-91.9405,219.5,AR,PLEASANT GROVE 1.9 WNW,,
USC00035820,36.2639,-90.9681,96.0,AR,POCAHONTAS 1,HCN,
USC00035820,36.2642,-90.9683,96.0,AR,POCAHONTAS 1,HCN,
USC00035831,35.5325,-90.6872,105.2,AR,POINSETT SP,,
USC00035866,33.2511,-91.5058,39.0,AR,PORTLAND,,
USC00035900,35.9828,-94.3061,399.3,AR,PRAIRIE GROVE,,
USC00035908,33.8203,-93.3878,93.9,AR,PRESCOTT 2 NNW,HCN,
USC00036008,35.305,-93.8767,141.1,AR,RATCLIFF,,
USC00036174,33.9539,-92.2019,85.3,AR,RISON,,
US1ARBT0050,36.2967,-94.1424,391.4,AR,ROGERS 2.4 SSW,,
USC00036253,33.8103,-91.2778,45.7,AR,ROHWER 2 NNE,HCN,
US1ARPP0003,35.3055,-93.0172,277.1,AR,RUSSELLVILLE 7.3 ENE,,
USW00053920,35.2578,-93.0947,122.8,AR,RUSSELLVILLE MUNI AP,,
USC00036376,34.3703,-91.1242,61.0,AR,SAINT CHARLES,,
USC00036380,36.4547,-90.1458,91.4,AR,SAINT FRANCIS,,
USC00036403,36.3561,-91.8036,207.3,AR,SALEM,,
US1ARLG0009,35.3764,-93.4452,119.2,AR,SCRANTON 5.4 ENE,,
USC00036506,35.2683,-91.7164,70.1,AR,SEARCY,,
USC00036506,35.2678,-91.7167,70.1,AR,SEARCY,,
US1ARWH0005,35.1937,-91.6902,64.9,AR,SEARCY 4.1 SE,,
US1ARSL0035,34.6067,-92.3747,106.4,AR,SHANNON HILLS 2.2 ESE,,
USC00036562,34.3019,-92.3914,76.2,AR,SHERIDAN,,
US1ARGT0009,34.2922,-92.4081,89.9,AR,SHERIDAN 1.2 S,,
US1ARPS0071,34.8429,-92.2115,102.7,AR,SHERWOOD 0.8 NNW,,
US1ARPS0007,34.8572,-92.2155,135.3,AR,SHERWOOD 1.8 NNW,,
US1ARPS0026,34.8923,-92.2439,106.1,AR,SHERWOOD 4.6 NNW,,
US1ARST0024,35.7375,-92.2745,410.3,AR,SHIRLEY 6.8 NNE,,
US1ARLW0002,36.0223,-91.2712,123.7,AR,SMITHVILLE 4.4 SSE,,
USC00036768,33.9153,-92.8267,51.8,AR,SPARKMAN,,
USC00036393,35.8236,-93.7672,423.7,AR,ST PAUL 1 E,,
US1ARSR0008,36.0518,-92.8434,385.0,AR,ST. JOE 2.7 WNW,,
USC00036918,34.4764,-91.5381,68.0,AR,STUTTGART,,
USC00036920,34.4744,-91.4172,60.4,AR,STUTTGART 9 ESE,,
USC00036928,35.3028,-93.6369,152.4,AR,SUBIACO,HCN,
USC00037038,33.0986,-93.4647,76.2,AR,TAYLOR,,
US1ARML0003,33.3767,-94.0421,81.4,AR,TEXARKANA 5.3 SSW,,
USW00013977,33.4536,-94.0075,110.0,AR,TEXARKANA WEBB FLD,,
USC00037315,33.5853,-91.8047,82.3,AR,U OF ARKANSAS AT MONTICELLO,,
US1ARCF0005,35.4769,-94.3607,170.7,AR,VAN BUREN 2.1 NNW,,
USC00037383,34.3828,-94.3608,344.1,AR,VANDERVOORT 1 ENE,,
USC00037712,35.1242,-90.1805,65.5,AR,W MEMPHIS,,
USC00037488,34.8992,-94.1942,205.7,AR,WALDRON,,
USC00037488,34.9228,-94.0944,218.2,AR,WALDRON,,
USW00093991,36.1333,-90.9333,82.9,AR,WALNUT RIDGE FAA AP,,
USC00037582,33.6044,-92.0997,64.0,AR,WARREN 2 WSW,,
USC00037592,34.625,-93.5439,181.4,AR,WASHITA,,
USC00037653,36.0744,-93.9136,446.5,AR,WESLEY 3N,,
USC00037712,35.1242,-90.1805,65.5,AR,WEST MEMPHIS,,
USW00053959,35.135,-90.2344,65.2,AR,WEST MEMPHIS MUNI AP,,
USC00037963,35.855,-94.0203,667.2,AR,WINSLOW 7NE,,
USC00037970,35.7692,-92.8697,565.4,AR,WITTS SPRING,,
USC00038010,35.2094,-92.4453,100.6,AR,WOOSTER,,
USC00038052,35.2547,-90.7964,79.2,AR,WYNNE,,
USC00038084,36.2,-92.6667,243.8,AR,YELLVILLE 2 SSE,,
AQC00914000,-14.3167,-170.7667,408.4,AS,AASUFOU,,
AQW00061705,-14.3306,-170.7136,3.7,AS,PAGO PAGO WSO AP,GSN,91765
USC00020060,33.9433,-113.1875,659.9,AZ,AGUILA,,
USC00020080,32.3697,-112.86,539.5,AZ,AJO,HCN,
USC00020080,32.3697,-112.86,533.7,AZ,AJO,HCN,
USC00020100,34.2281,-113.5778,393.2,AZ,ALAMO DAM,,
USC00020159,33.8492,-109.1469,2453.6,AZ,ALPINE,,
USC00020170,33.6392,-109.3278,2792.0,AZ,ALPINE 18 SW,,
USC00020174,33.7383,-109.1167,2051.3,AZ,ALPINE 8 SSE,,
USC00020287,31.9792,-111.3831,838.2,AZ,ANVIL RCH,,
USC00020287,31.9792,-111.3836,840.9,AZ,ANVIL RCH,,
US1AZPN0020,33.396,-111.5807,485.2,AZ,APACHE JUNCTION 2.5 WSW,,
US1AZPN0035,33.3916,-111.4928,524.0,AZ,APACHE JUNCTION 3.0 ESE,,
US1AZPN0027,33.4563,-111.5425,582.2,AZ,APACHE JUNCTION 3.2 N,,
USC00020288,33.4625,-111.4814,630.9,AZ,APACHE JUNCTION 5 NE,,
US1AZPN0008,33.3629,-111.4698,535.5,AZ,APACHE JUNCTION 5.3 ESE,,
US1AZPN0024,33.3666,-111.46,558.1,AZ,APACHE JUNCTION 5.5 ESE,,
USC00020380,31.5722,-111.335,1103.4,AZ,ARIVACA,,
USC00020380,31.5767,-111.3172,1112.2,AZ,ARIVACA,,
USC00020404,32.7306,-111.6917,464.8,AZ,ARIZONA CITY,,
USC00020498,33.0869,-111.2864,472.4,AZ,ASHURST HAYDEN DAM,,
USC00020498,33.0986,-111.2469,492.3,AZ,ASHURST HAYDEN DAM,,
US1AZMR0344,33.4743,-112.3017,308.2,AZ,AVONDALE 3.8 NE,,
USC00020586,34.5972,-113.1739,1205.5,AZ,BAGDAD,,
USC00020586,34.5975,-113.1744,1199.4,AZ,BAGDAD,,
USC00020632,33.8097,-111.6497,502.9,AZ,BARTLETT DAM,,
USC00020670,34.6417,-111.7831,1074.4,AZ,BEAVER CREEK,,
USC00020672,36.8969,-113.9425,571.5,AZ,BEAVER DAM,,
USC00020672,36.9139,-113.9422,588.6,AZ,BEAVER DAM,,
USC00020678,35.23,-111.8214,2179.9,AZ,BELLEMONT WFO,,
USC00020678,35.2303,-111.8222,2179.9,AZ,BELLEMONT WFO,,
USC00020683,31.8806,-110.2403,1124.7,AZ,BENSON 6 SE,,
USC00020683,31.8806,-110.2403,1124.7,AZ,BENSON 6SE,,
USC00020750,36.6778,-110.5411,2220.8,AZ,BETATAKIN,,
USC00020775,31.4475,-109.9289,1694.7,AZ,BISBEE 1WNW,,
USC00020808,33.4783,-109.7517,1848.6,AZ,BLACK RIVER PUMPS,,
USC00020808,33.4783,-109.7517,1848.6,AZ,BLACK RVR PUMPS,,
USC00020871,34.6108,-111.1922,2097.0,AZ,BLUE RIDGE RS,,
USC00020949,33.9431,-114.0242,281.9,AZ,BOUSE,,
USC00020958,32.325,-109.4917,1151.2,AZ,BOWIE,,
USC00021001,36.2147,-112.062,2438.4,AZ,BRIGHT ANGEL RS,,
USC00021026,33.3761,-112.5828,271.3,AZ,BUCKEYE,HCN,
USC00021050,35.1411,-114.5686,161.8,AZ,BULLHEAD CITY,,
USS0011R06S,34.46,-111.41,2225.0,AZ,Baker Butte,,
USS0009S01S,33.98,-109.5,2781.3,AZ,Baldy,,
USS0011R13S,34.86,-111.61,1948.6,AZ,Bar M,,
USS0009S06S,33.69,-109.22,2435.4,AZ,Beaver Head,,
USS0009N05S,36.33,-109.06,2804.2,AZ,Beaver Spring,,
USC00021169,35.8833,-111.4,1269.5,AZ,CAMERON 1 NNE,,
US1AZYV0136,34.5997,-111.8778,952.5,AZ,CAMP VERDE 3.2 NNW,,
USC00021231,31.5589,-110.5294,1527.0,AZ,CANELO 1 NW,,
USC00021248,36.1533,-109.5394,1709.9,AZ,CANYON DE CHELLY,HCN,
USC00021282,33.8161,-111.9019,771.1,AZ,CAREFREE,,
US1AZMR0031,33.8186,-111.8818,804.7,AZ,CAREFREE 2.1 E,,
USC00021306,32.8878,-111.7117,427.6,AZ,CASA GRANDE,,
USC00021306,32.8875,-111.7147,426.7,AZ,CASA GRANDE,,
US1AZPN0037,32.809,-111.684,450.2,AZ,CASA GRANDE 5.7 SE,,
US1AZPN0033,32.9603,-111.7841,453.2,AZ,CASA GRANDE 6.5 NNW,,
USC00021314,32.9947,-111.5367,432.5,AZ,CASA GRANDE NM,,
USC00021330,32.3222,-110.4147,973.5,AZ,CASCABEL,,
USC00021330,32.2617,-110.3481,973.5,AZ,CASCABEL,,
USC00021353,33.9825,-112.3617,606.6,AZ,CASTLE HOT SPRINGS,,
USC00021353,33.9825,-112.3628,606.6,AZ,CASTLE HOT SPRINGS,,
US1AZPM0231,32.4892,-110.8841,1020.5,AZ,CATALINA 2.5 ESE,,
USC00021357,32.4178,-110.9303,825.1,AZ,CATALINA SP,,
US1AZMR0372,33.8006,-112.1099,543.2,AZ,CAVE CREEK 9.4 WSW,,
US1AZMR0197,33.3552,-111.8461,368.2,AZ,CHANDLER 3.8 N,,
US1AZMR0157,33.2213,-111.7756,385.6,AZ,CHANDLER 6.6 SE,,
USC00021514,33.2058,-111.6819,434.3,AZ,CHANDLER HEIGHTS,HCN,
USC00021574,34.54,-110.9153,2135.4,AZ,CHEVELON RS,,
USC00021614,34.3494,-111.6981,807.7,AZ,CHILDS,HCN,
USC00021654,34.7569,-112.4567,1447.8,AZ,CHINO VALLEY,,
USC00021664,32.0061,-109.3572,1615.4,AZ,CHIRICAHUA NM,,
USC00021849,33.0561,-109.3072,1072.9,AZ,CLIFTON,,
USC00021920,36.9936,-112.9719,1524.3,AZ,COLORADO CITY,,
USC00022109,34.305,-112.165,1149.4,AZ,CORDES,,
US1AZYV0055,34.7063,-111.9185,1012.2,AZ,CORNVILLE 0.8 SSE,,
US1AZPM0013,31.9525,-110.763,1049.4,AZ,CORONA DE TUSCON 0.4 SE,,
USC00022140,31.3456,-110.2542,1597.8,AZ,CORONADO NM HQ,,
USC00022140,31.3456,-110.2542,1597.8,AZ,CORONADO NMEM,,
US1AZYV0018,34.7231,-112.0238,1068.0,AZ,COTTONWOOD 1.4 WSW,,
USC00022329,34.2097,-112.3453,1804.4,AZ,CROWN KING,,
USS0012P01S,35.26,-112.06,2164.1,AZ,Chalender,,
USS0009S07S,33.8,-109.15,2560.3,AZ,Coronado Trail,,
USC00022434,32.9711,-113.4981,158.5,AZ,DATELAND WHITEWING RCH,,
USW00023109,32.1667,-110.8833,808.9,AZ,DAVIS MONTHAN AFB,,
US1AZYV0087,34.514,-112.2241,1390.8,AZ,DEWEY-HUMBOLDT 1.4 SE,,
USC00022527,35.2947,-113.3664,1674.0,AZ,DIAMOND M RANCH,,
USC00022527,35.2947,-113.3667,1674.0,AZ,DIAMOND M RCH,,
US1AZMH0027,35.6126,-114.2662,1063.1,AZ,DOLAN SPRINGS 1.4 NNE,,
USC00022659,31.345,-109.5394,1231.4,AZ,DOUGLAS,,
US1AZCH0050,31.3411,-109.5226,1246.0,AZ,DOUGLAS 1.0 E,,
US1AZCH0069,31.4583,-109.5969,1251.5,AZ,DOUGLAS 8.8 NNW,,
USW00093026,31.4583,-109.6061,1251.2,AZ,DOUGLAS BISBEE INL AP,,72272
USC00022754,32.7481,-109.1214,1115.6,AZ,DUNCAN,,
USC00022782,33.4192,-111.6444,462.7,AZ,E MESA,,
USC00022782,33.4192,-111.6444,462.7,AZ,EAST MESA,,
USC00022790,33.6133,-114.4706,141.7,AZ,EHRENBERG 2 E,,
USW00053132,31.5908,-110.5086,1466.4,AZ,ELGIN 5 S,,
USW00053132,31.5908,-110.5086,1466.4,AZ,ELGIN 5 S,,72276
USC00022807,32.7819,-111.5186,470.9,AZ,ELOY 4 NE,,
US1AZCN0033,35.1704,-111.6815,2146.7,AZ,FLAGSTAFF 2.2 SW,,
US1AZCN0113,35.1628,-111.6837,2115.0,AZ,FLAGSTAFF 2.7 SW,,
US1AZCN0014,35.2191,-111.6013,2124.5,AZ,FLAGSTAFF 3.4 NE,,
USC00023009,35.1611,-111.7311,2171.7,AZ,FLAGSTAFF 4 SW,,
US1AZCN0088,35.1836,-111.5791,2115.0,AZ,FLAGSTAFF 4.0 E,,
US1AZCN0046,35.224,-111.5916,2098.9,AZ,FLAGSTAFF 4.1 NE,,
US1AZCN0027,35.2617,-111.5343,2018.7,AZ,FLAGSTAFF 8.2 NE,,
USW00003103,35.1442,-111.6664,2134.5,AZ,FLAGSTAFF PULLIAM AP,,72375
USC00023027,33.0364,-111.3881,426.7,AZ,FLORENCE,,
US1AZPN0025,33.108,-111.5072,465.4,AZ,FLORENCE 9.1 NW,,
US1AZPM0046,32.318,-111.031,682.1,AZ,FLOWING WELLS 2.1 NW,,
US1AZPM0063,32.2861,-111.0622,713.8,AZ,FLOWING WELLS 3.1 W,,
US1AZPM0049,32.3021,-111.0752,708.1,AZ,FLOWING WELLS 3.9 W,,
US1AZPM0047,32.3827,-111.0379,756.2,AZ,FLOWING WELLS 6.4 NNW,,
USW00003124,31.5883,-110.3442,1438.4,AZ,FORT HUACHUCA,,72273
USC00023190,33.6028,-111.7131,481.6,AZ,FOUNTAIN HILLS,,
US1AZMR0470,33.5763,-111.7569,538.3,AZ,FOUNTAIN HILLS 3.6 SW,,
USC00023250,36.9414,-112.5258,1421.0,AZ,FREDONIA,,
USC00023110,32.6231,-109.9428,1478.3,AZ,FT GRANT,,
USW00053146,31.6072,-110.4281,1453.3,AZ,FT HUACHUCA PIONEER AIRFIELD,,
USC00023150,33.0094,-109.9855,864.1,AZ,FT THOMAS 2 SW,,
USC00023160,35.2681,-111.7428,2239.4,AZ,FT VALLEY,HCN,
USS0011P02S,35.27,-111.74,2240.3,AZ,Fort Valley,,
USS0011P13S,35.07,-111.84,2194.6,AZ,Fry,,
USC00023303,35.7164,-109.5661,1932.4,AZ,GANADO,,
USC00023303,35.7089,-109.5539,1932.4,AZ,GANADO,,
USC00023393,32.9481,-112.7131,224.0,AZ,GILA BEND,,
USC00023393,32.9381,-112.6811,242.0,AZ,GILA BEND 2SE,,
US1AZMR0280,33.372,-111.812,372.5,AZ,GILBERT 2.4 NW,,
US1AZMR0218,33.3671,-111.7204,395.3,AZ,GILBERT 3.6 ENE,,
US1AZMR0075,33.3741,-111.8053,373.4,AZ,GILBERT 3.8 NW,,
US1AZMR0386,33.3123,-111.7307,392.6,AZ,GILBERT 3.9 SE,,
US1AZMR0494,33.2734,-111.693,413.6,AZ,GILBERT 7.3 SE,,
US1AZMR0357,33.2204,-111.749,372.8,AZ,GILBERT 9.1 SSE,,
USC00023448,34.1111,-111.2758,883.9,AZ,GISELA,,
US1AZMR0064,33.5752,-112.1834,361.5,AZ,GLENDALE 1.2 ESE,,
US1AZMR0289,33.7062,-112.1721,428.5,AZ,GLENDALE 12.2 N,,
US1AZMR0379,33.5486,-112.1425,363.9,AZ,GLENDALE 2.5 ENE,,
US1AZMR0046,33.5339,-112.1957,347.2,AZ,GLENDALE 3.5 S,,
USC00023505,33.3767,-110.7711,1112.5,AZ,GLOBE,,
USC00023501,33.3947,-110.7933,1115.6,AZ,GLOBE #3,,
US1AZMR0245,33.4349,-112.4004,297.2,AZ,GOODYEAR 2.9 W,,
US1AZMR0170,33.4066,-112.4485,276.1,AZ,GOODYEAR 5.9 WSW,,
USC00023584,36.0353,-111.8303,2279.9,AZ,GRAND CANYON E ENTRANCE,,
USC00023596,36.0528,-112.1503,2068.1,AZ,GRAND CANYON NP 2,HCN,
USW00003195,35.9461,-112.1547,2013.5,AZ,GRAND CANYON NP AP,,
USC00023582,36.0597,-112.1097,2158.9,AZ,GRAND CANYON VISITOR CTR,,
USC00023668,31.8931,-110.9978,883.9,AZ,GREEN VALLEY,,
US1AZPM0269,31.8683,-111.0098,902.5,AZ,GREEN VALLEY 1.2 W,,
US1AZPM0347,31.8731,-111.0045,912.6,AZ,GREEN VALLEY 1.4 NNW,,
US1AZPM0323,31.8752,-111.0091,928.7,AZ,GREEN VALLEY 1.5 NW,,
US1AZPM0105,31.812,-111.016,915.0,AZ,GREEN VALLEY 3.2 SW,,
US1AZPM0194,31.8884,-110.9462,878.7,AZ,GREEN VALLEY 3.7 NE,,
US1AZPM0172,31.8942,-110.9461,872.6,AZ,GREEN VALLEY 3.9 NE,,
USC00023683,34.0219,-109.4519,2522.2,AZ,GREER,,
USC00023828,34.7433,-111.4139,2279.9,AZ,HAPPY JACK RS,,
USC00023961,34.3925,-110.5581,2008.6,AZ,HEBER (BLACK MESA) RS,,
USC00023961,34.3925,-110.5581,2008.6,AZ,HEBER BLACK MESA RS,,
US1AZCH0066,31.437,-110.1296,1304.5,AZ,HEREFORD 1.9 WSW,,
US1AZCH0054,31.3516,-110.2132,1455.1,AZ,HEREFORD 9.0 SW,,
USC00024053,34.47,-112.8881,1011.9,AZ,HILLSIDE 4 NNE,,
USC00024089,34.9094,-110.1544,1549.9,AZ,HOLBROOK,HCN,
USC00024182,33.9825,-111.7139,615.7,AZ,HORSESHOE DAM,,
USS0009S11S,33.65,-109.31,2749.3,AZ,Hannagan Meadows,,
USS0011R05S,34.75,-111.41,2325.6,AZ,Happy Jack,,
USS0010R04S,34.31,-110.75,2328.7,AZ,Heber,,
USC00024391,34.4025,-111.6181,1156.7,AZ,IRVING,,
USC00024453,34.7522,-112.1114,1508.8,AZ,JEROME,,
USC00024534,31.8353,-110.3553,1429.5,AZ,KARTCHNER CAVERNS,,
USC00024586,35.8111,-110.1917,1891.3,AZ,KEAMS CANYON,,
USC00024586,35.8108,-110.1933,1891.3,AZ,KEAMS CANYON,,
USC00024590,33.0483,-110.9125,557.8,AZ,KEARNY,,
USC00024645,35.2,-114.0167,1078.7,AZ,KINGMAN #2,HCN,
USW00093167,35.2578,-113.9331,1042.4,AZ,KINGMAN MOHAVE CO AP,,72370
USC00024675,31.96,-111.5972,2069.6,AZ,KITT PEAK,,
USC00024675,31.9603,-111.5978,2069.6,AZ,KITT PEAK,,
USC00024686,35.55,-109.7,1981.2,AZ,KLAGETOH 12 WNW,,
USC00024702,33.2742,-113.9653,541.0,AZ,KOFA MINE,,
USC00024759,34.45,-114.3667,146.9,AZ,LAKE HAVASU,,
US1AZMH0006,34.521,-114.2802,451.4,AZ,LAKE HAVASU 3.5 NE,,
USC00024761,34.5031,-114.3603,136.9,AZ,LAKE HAVASU CITY,,
USC00024829,33.3369,-112.1472,345.9,AZ,LAVEEN 3 SSE,,
USC00024829,33.3372,-112.1469,345.9,AZ,LAVEEN 3 SSE,,
US1AZMR0111,33.3364,-112.1497,340.8,AZ,LAVEEN 3.0 SE,,
USC00024849,36.8644,-111.6022,978.4,AZ,LEES FERRY,HCN,
USC00024977,33.4992,-112.3631,317.0,AZ,LITCHFIELD PARK,,
US1AZMR0412,33.4955,-112.3491,313.6,AZ,LITCHFIELD PARK 0.4 N,,
US1AZMR0035,33.5041,-112.3399,316.7,AZ,LITCHFIELD PARK 1.1 E,,
US1AZMR0402,33.5127,-112.4589,347.2,AZ,LITCHFIELD PARK 6.5 WNW,,
USC00025129,36.4192,-109.2269,1987.3,AZ,LUKACHUKAI,,
USC00025270,33.1139,-112.0303,353.6,AZ,MARICOPA 4 N,,
US1AZYV0005,34.2826,-112.1991,981.5,AZ,MAYER 8.5 SSE,,
USC00025412,34.1142,-109.8589,2237.2,AZ,MC NARY 2N,,
USC00025418,31.6017,-109.6686,1271.0,AZ,MC NEAL,,
USC00025426,36.0183,-114.0681,895.5,AZ,MEADVIEW 1W,,
USC00025467,33.4114,-111.8183,376.4,AZ,MESA,,
US1AZMR0010,33.4267,-111.7432,401.1,AZ,MESA 0.6 NNW,,
US1AZMR0096,33.3978,-111.7501,386.2,AZ,MESA 1.5 SSW,,
US1AZMR0261,33.4305,-111.7956,384.4,AZ,MESA 1.6 ENE,,
US1AZMR0337,33.4065,-111.6103,476.1,AZ,MESA 12.1 E,,
US1AZMR0288,33.4311,-111.5885,507.5,AZ,MESA 13.4 E,,
US1AZMR0342,33.3476,-111.5999,448.7,AZ,MESA 13.6 ESE,,
US1AZMR0260,33.368,-111.8622,367.3,AZ,MESA 4.3 SW,,
US1AZMR0442,33.3702,-111.8645,367.0,AZ,MESA 4.3 SW,,
US1AZMR0373,33.4412,-111.7417,408.1,AZ,MESA 4.7 ENE,,
US1AZMR0105,33.4654,-111.6445,544.1,AZ,MESA 6.4 ENE,,
US1AZMR0048,33.358,-111.8563,367.3,AZ,MESA 7.9 WSW,,
USC00025494,35.0364,-111.0231,1687.1,AZ,METEOR CRATER,,
USC00025512,33.4044,-110.87,1085.1,AZ,MIAMI,HCN,
USC00025635,34.6106,-111.8381,969.3,AZ,MONTEZUMA CASTLE NM,,
USC00025665,36.9853,-110.12,1676.7,AZ,MONUMENT VALLEY,,
USC00025700,33.5544,-111.4425,519.7,AZ,MORMON FLAT,,
USC00025737,32.3858,-110.6981,2141.8,AZ,MT LEMMON WILLOW CANYON,,
USC00025780,34.9364,-111.6392,1972.1,AZ,MUND'S PARK,,
USS0009S02S,33.92,-109.46,2804.2,AZ,Maverick Fork,,
USS0011R03S,34.94,-111.52,2286.0,AZ,Mormon Mountain,,
USS0011R12S,34.97,-111.51,2590.8,AZ,Mormon Mtn Summit,,
USC00025908,32.1167,-110.6833,929.6,AZ,N LAZY H RCH,,
USC00025825,34.3222,-111.4533,1401.5,AZ,NATURAL BRG,,
USC00025825,34.3219,-111.4533,1404.5,AZ,NATURAL BRG,,
USC00025924,31.4553,-110.9681,1054.9,AZ,NOGALES 6 N,,
USW00003196,31.4208,-110.8458,1198.5,AZ,NOGALES INTL AP,,
US1AZAP0007,33.9417,-109.2412,2432.3,AZ,NUTRIOSO 1.9 WSW,,
USS0009S04S,33.9,-109.16,2590.8,AZ,Nutrioso,,
USC00026037,34.9589,-111.7553,1566.4,AZ,OAK CREEK CANYON,,
USC00026037,34.96,-111.7553,1560.0,AZ,OAK CREEK CANYON,,
US1AZPN0049,32.6058,-110.7894,1375.3,AZ,ORACLE 1.1 WSW,,
USC00026119,32.6025,-110.7344,1374.6,AZ,ORACLE 2 SE,,
USC00026117,32.61,-110.7317,1400.6,AZ,ORACLE SP,,
USC00026132,31.9556,-112.8003,511.5,AZ,ORGAN PIPE CACTUS NM,,
US1AZPM0069,32.4177,-110.9475,826.9,AZ,ORO VALLEY 1.1 ESE,,
US1AZPM0101,32.3933,-110.9819,759.6,AZ,ORO VALLEY 1.3 W,,
US1AZPM0185,32.3924,-110.9912,760.2,AZ,ORO VALLEY 1.8 W,,
US1AZPM0139,32.4166,-110.9758,834.5,AZ,ORO VALLEY 2.1 NNW,,
US1AZPM0141,32.4289,-110.9872,866.5,AZ,ORO VALLEY 3.1 NNW,,
US1AZPM0162,32.4463,-110.9733,888.5,AZ,ORO VALLEY 4.0 NNW,,
US1AZPM0285,32.462,-110.9679,916.8,AZ,ORO VALLEY 5.0 N,,
US1AZPM0137,32.4745,-110.958,914.4,AZ,ORO VALLEY 5.8 N,,
US1AZPM0294,32.3069,-111.0981,744.6,AZ,ORO VALLEY 9.9 SW,,
USC00026180,36.9208,-111.4483,1301.5,AZ,PAGE,,72378
US1AZCN0069,36.9125,-111.4501,1330.8,AZ,PAGE 0.2 N,,
USW00003162,36.9261,-111.4478,1313.7,AZ,PAGE MUNI AP,,72371
USC00026190,35.0681,-109.7689,1755.6,AZ,PAINTED DESERT NP,,
USC00026194,33.0772,-113.0317,173.1,AZ,PAINTED ROCK DAM,,
USC00026242,31.9353,-109.2186,1664.2,AZ,PARADISE,,
US1AZMR0484,33.5635,-111.9311,400.5,AZ,PARADISE VALLEY 2.4 NNE,,
USC00026250,34.1547,-114.2897,128.0,AZ,PARKER,HCN,
USC00026250,34.1547,-114.2908,128.0,AZ,PARKER,HCN,
USC00026282,31.5481,-110.7517,1277.1,AZ,PATAGONIA #2,,
USC00026282,31.5392,-110.7603,1232.6,AZ,PATAGONIA PATON CTR,,
US1AZYV0034,34.8559,-112.4517,1348.1,AZ,PAULDEN 2.3 SSE,,
USW00093139,34.2325,-111.3447,1478.3,AZ,PAYSON,,
USC00026328,35.5406,-113.4236,1472.8,AZ,PEACH SPRINGS,,
USC00026353,31.9356,-109.8378,1325.9,AZ,PEARCE - SUNSITES,HCN,
USC00026468,34.7994,-109.885,1659.9,AZ,PETRIFIED FOREST NP,,
USC00026471,36.1383,-112.0958,771.1,AZ,PHANTOM RANCH,,
USC00026471,36.1067,-112.0947,771.1,AZ,PHANTOM RCH,,
US1AZMR0313,33.2938,-112.0888,365.5,AZ,PHOENIX 10.2 S,,
US1AZMR0443,33.6232,-112.0797,410.6,AZ,PHOENIX 12.7 N,,
US1AZMR0220,33.6258,-112.0591,444.1,AZ,PHOENIX 12.8 N,,
US1AZMR0420,33.6195,-112.1381,391.7,AZ,PHOENIX 13.0 NNW,,
US1AZMR0410,33.4761,-112.0797,333.5,AZ,PHOENIX 2.6 NNW,,
US1AZMR0131,33.5039,-112.0882,342.9,AZ,PHOENIX 3.8 NNW,,
US1AZMR0343,33.4912,-111.9993,366.1,AZ,PHOENIX 5.4 NE,,
US1AZMR0034,33.3925,-112.1437,312.7,AZ,PHOENIX 5.6 SW,,
US1AZMR0326,33.3504,-112.0945,399.6,AZ,PHOENIX 6.3 SSW,,
US1AZMR0211,33.5511,-112.1466,363.3,AZ,PHOENIX 8.8 NNW,,
US1AZMR0082,33.572,-112.0132,447.8,AZ,PHOENIX 9.2 NE,,
USW00093140,33.4489,-112.0825,334.7,AZ,PHOENIX CITY,,
USW00003184,33.6883,-112.0817,443.5,AZ,PHOENIX DEER VALLEY MUNI AP,,
USW00023111,33.55,-112.3667,331.0,AZ,PHOENIX LUKE AFB,,
USW00023183,33.4278,-112.0039,337.4,AZ,PHOENIX SKY HARBOR INTL AP,GSN,72278
USC00026513,32.6464,-111.4017,603.8,AZ,PICACHO 8 SE,,
US1AZGH0002,32.8857,-109.81,869.0,AZ,PIMA 0.7 ESE,,
USC00026597,34.1167,-109.9333,2121.4,AZ,PINETOP,,
USC00026601,34.1242,-109.9219,2194.6,AZ,PINETOP 2E,,
USC00026601,34.1239,-109.9219,2194.6,AZ,PINETOP 2E,,
US1AZNV0007,34.1109,-109.9003,2193.0,AZ,PINETOP-LAKESIDE 4.0 ESE,,
USC00026603,33.7275,-111.8606,781.8,AZ,PINNACLE PEAK,,
USC00026616,36.8625,-112.7375,1499.6,AZ,PIPE SPRING NM,,
USC00026616,36.8586,-112.7386,1499.6,AZ,PIPE SPRINGS NATL MON,,
USC00026653,34.1003,-110.9658,1579.8,AZ,PLEASANT VALLEY,,
USC00026653,34.0989,-110.9442,1539.2,AZ,PLEASANT VALLEY R S,,
USC00026716,31.8828,-109.2058,1642.9,AZ,PORTAL 4 SW,,
USC00026716,31.8833,-109.2056,1642.9,AZ,PORTAL 4 SW,,
USC00026796,34.5706,-112.4322,1586.5,AZ,PRESCOTT,HCN,
US1AZYV0049,34.5288,-112.4611,1731.0,AZ,PRESCOTT 0.8 S,,
US1AZYV0068,34.534,-112.4714,1637.1,AZ,PRESCOTT 0.8 WSW,,
US1AZYV0052,34.4349,-112.6079,1466.4,AZ,PRESCOTT 11.1 SW,,
US1AZYV0091,34.5341,-112.4155,1832.2,AZ,PRESCOTT 2.6 E,,
US1AZYV0022,34.5613,-112.3863,1648.4,AZ,PRESCOTT 4.4 ENE,,
US1AZYV0042,34.6062,-112.4623,1599.0,AZ,PRESCOTT 4.6 N,,
US1AZYV0092,34.6546,-112.5122,1590.1,AZ,PRESCOTT 8.5 NNW,,
USW00023184,34.6517,-112.4208,1536.8,AZ,PRESCOTT LOVE FLD,,
US1AZYV0001,34.6016,-112.3043,1523.1,AZ,PRESCOTT VALLEY 1.1 ESE,,
USC00026840,33.8556,-111.3064,708.7,AZ,PUNKIN CTR,,
USS0011R10S,34.37,-111.01,2417.1,AZ,Promontory,,
USC00026865,33.665,-114.2272,266.7,AZ,QUARTZSITE,,
US1AZPN0073,33.2606,-111.5676,448.1,AZ,QUEEN CREEK 3.9 ENE,,
US1AZPN0065,33.1788,-111.5742,459.0,AZ,QUEEN CREEK 5.3 SE,,
US1AZPN0077,33.2982,-111.2866,627.9,AZ,QUEEN VALLEY 0.2 E,,
USC00027036,32.3903,-110.4667,896.1,AZ,REDINGTON,,
USC00027036,32.4275,-110.4875,879.0,AZ,REDINGTON,,
US1AZSC0013,31.437,-111.0396,1184.8,AZ,RIO RICO 4.4 WSW,,
USC00027187,32.8117,-111.6314,455.7,AZ,ROBSON RCH,,
USC00027281,33.6489,-111.1089,794.0,AZ,ROOSEVELT 1 S,HCN,
USC00027281,33.6731,-111.1508,672.1,AZ,ROOSEVELT 1 WNW,HCN,
USC00027334,31.7561,-109.4131,1636.8,AZ,RUCKER CANYON,,
USC00027370,33.0722,-111.7661,396.2,AZ,SACATON,HCN,
US1AZPN0029,32.5304,-110.8593,976.9,AZ,SADDLEBROOKE 1.5 ESE,,
USC00027390,32.815,-109.6808,900.4,AZ,SAFFORD AG CTR,HCN,
USC00027390,32.815,-109.6808,900.4,AZ,SAFFORD AGRICULTRL CTR,HCN,
USW00093084,32.8547,-109.6353,968.0,AZ,SAFFORD MUNI AP,,
USC00027398,32.1794,-110.7364,938.8,AZ,SAGUARO NP,,
US1AZPM0109,31.9607,-110.9919,874.2,AZ,SAHUARITA 2.6 WNW,,
USC00027435,34.5172,-109.4028,1764.8,AZ,SAINT JOHNS,HCN,
USC00027462,33.6833,-113.4833,487.4,AZ,SALOME 17 SE,,
USC00027480,33.1819,-110.5261,771.8,AZ,SAN CARLOS RESERVOIR,,
USC00027480,33.1819,-110.5261,771.8,AZ,SAN CARLOS RSVR,,
USC00027530,32.6014,-110.6339,1054.6,AZ,SAN MANUEL,,
USC00027530,32.6014,-110.6292,1042.4,AZ,SAN MANUEL,,
USC00027560,32.2714,-109.2256,1100.3,AZ,SAN SIMON,,
USC00027560,32.2933,-109.2269,1091.2,AZ,SAN SIMON,,
USC00027488,35.2239,-109.3222,1784.0,AZ,SANDERS,,
USC00027593,31.7625,-110.8464,1310.6,AZ,SANTA RITA EXP RANGE,,
USC00027619,31.4831,-111.5436,1094.2,AZ,SASABE,,
USC00027625,31.5717,-111.5056,1065.3,AZ,SASABE 6 NNE,,
USC00027622,31.6036,-111.6022,1165.9,AZ,SASABE 7 NW,,
US1AZMR0264,33.6468,-111.9872,453.8,AZ,SCOTTSDALE 11.6 NNW,,
US1AZMR0232,33.754,-111.847,817.8,AZ,SCOTTSDALE 17.7 N,,
US1AZMR0016,33.71,-111.8415,781.2,AZ,SCOTTSDALE 2.3 NE,,
US1AZMR0207,33.4514,-111.9182,363.3,AZ,SCOTTSDALE 3.7 SSW,,
US1AZMR0113,33.6158,-111.9566,435.3,AZ,SCOTTSDALE 4.0 NW,,
US1AZMR0045,33.7566,-111.9046,694.3,AZ,SCOTTSDALE 5.3 NNW,,
US1AZMR0071,33.4741,-111.9395,387.4,AZ,SCOTTSDALE 7.8 SSW,,
US1AZMR0387,33.6159,-111.8861,444.4,AZ,SCOTTSDALE 8.0 N,,
US1AZMR0384,33.5919,-111.7731,560.5,AZ,SCOTTSDALE 9.3 NE,,
USW00003192,33.6228,-111.9106,449.0,AZ,SCOTTSDALE MUNI AP,,
USC00027708,34.8956,-111.7644,1286.3,AZ,SEDONA,,
US1AZYV0030,34.7973,-111.9,1122.6,AZ,SEDONA 9.0 WSW,,
USC00027716,35.3322,-112.8797,1600.2,AZ,SELIGMAN,HCN,
US1AZNV0018,34.2457,-110.0594,1962.0,AZ,SHOW LOW 2.3 W,,
US1AZNV0010,34.2825,-110.1266,1906.8,AZ,SHOW LOW 6.5 WNW,,
USC00027855,34.2639,-110.0075,1954.1,AZ,SHOW LOW AP,,
USC00027880,31.5553,-110.2847,1402.1,AZ,SIERRA VISTA,,
USC00027880,31.5369,-110.2808,1403.9,AZ,SIERRA VISTA,,
US1AZCH0017,31.549,-110.2776,1391.7,AZ,SIERRA VISTA 1.3 E,,
US1AZCH0057,31.53,-110.2804,1410.0,AZ,SIERRA VISTA 1.8 SE,,
US1AZCH0027,31.4661,-110.2267,1390.2,AZ,SIERRA VISTA 7.2 SE,,
USC00028012,34.5081,-110.0839,1719.7,AZ,SNOWFLAKE,,
USC00028018,34.5,-110.3333,1853.2,AZ,SNOWFLAKE 15 W,,
US1AZNV0012,34.4969,-110.1668,1770.0,AZ,SNOWFLAKE 5.6 W,,
USC00027990,31.6811,-110.6553,1492.0,AZ,SONOITA,,
USC00028112,33.3814,-112.07,352.0,AZ,SOUTH PHOENIX,,
US1AZYV0060,34.34,-112.164,1188.7,AZ,SPRING VALLEY 0.4 SW,,
USC00028162,34.1311,-109.275,2133.0,AZ,SPRINGERVILLE,,
USW00093027,34.5183,-109.3792,1747.4,AZ,ST JOHNS INDUSTRIAL AP,,
USC00028214,33.5575,-111.5358,433.4,AZ,STEWART MOUNTAIN,,
USC00028214,33.5575,-111.5358,433.4,AZ,STEWART MTN DAM,,
US1AZMR0103,33.6321,-112.2903,365.2,AZ,SUN CITY 1.2 NNW,,
US1AZMR0026,33.6648,-112.371,384.0,AZ,SUN CITY WEST 1.0 W,,
USC00028326,33.9733,-109.5631,2856.0,AZ,SUNRISE MTN,,
USC00028329,35.3694,-111.5436,2127.5,AZ,SUNSET CRATER NM,,
USC00028348,33.3003,-111.0972,871.7,AZ,SUPERIOR,,
USC00028349,33.305,-111.0672,1266.4,AZ,SUPERIOR 2 ENE,,
US1AZMR0042,33.6546,-112.4481,406.0,AZ,SURPRISE 1.3 ESE,,
US1AZMR0287,33.7375,-112.1904,458.1,AZ,SURPRISE 10.9 NE,,
USS0011P08S,35.34,-111.65,2965.7,AZ,Snowslide Canyon,,
USC00028396,32.7225,-113.9192,98.8,AZ,TACNA 3 NE,,
US1AZNV0009,34.4727,-110.1435,1745.6,AZ,TAYLOR 3.2 WNW,,
USC00028468,36.9233,-109.09,1612.4,AZ,TEEC NOS POS,,
US1AZMR0032,33.3404,-111.9303,361.2,AZ,TEMPE 3.3 S,,
US1AZMR0477,33.3629,-111.9254,362.4,AZ,TEMPE 3.6 SSW,,
US1AZMR0352,33.3707,-111.9503,366.7,AZ,TEMPE 4.0 SW,,
USC00028499,33.4258,-111.9217,355.7,AZ,TEMPE ASU,,
USC00028516,36.03,-114.3289,390.1,AZ,TEMPLE BAR,,
USC00028590,32.3392,-110.9808,770.2,AZ,TOHONO CHUL,,
USC00028598,33.4519,-112.2433,312.4,AZ,TOLLESON 1 E,,
USC00028619,31.7119,-110.0686,1420.1,AZ,TOMBSTONE,HCN,
USC00028641,33.4203,-112.86,396.2,AZ,TONOPAH,,
USC00028650,34.3839,-111.0972,1947.7,AZ,TONTO CK FISH HAT NO2,,
USC00028792,36.1306,-111.2436,1520.3,AZ,TUBA CITY,,
US1AZSC0010,31.5883,-111.0876,1125.0,AZ,TUBAC 2.9 SW,,
US1AZPM0147,32.2318,-110.9363,750.7,AZ,TUCSON 1.3 NW,,
US1AZPM0250,32.2453,-110.9289,745.8,AZ,TUCSON 1.8 NNW,,
US1AZPM0160,32.3531,-111.0003,743.1,AZ,TUCSON 10.3 NNW,,
US1AZPM0118,32.1169,-110.7936,890.0,AZ,TUCSON 10.3 SE,,
US1AZPM0247,32.301,-111.068,707.7,AZ,TUCSON 10.3 WNW,,
US1AZPM0111,32.139,-110.7674,886.1,AZ,TUCSON 10.5 ESE,,
US1AZPM0010,32.1366,-110.7679,888.2,AZ,TUCSON 10.6 ESE,,
US1AZPM0263,32.3513,-111.0163,730.3,AZ,TUCSON 10.7 NNW,,
US1AZPM0193,32.2988,-111.077,714.8,AZ,TUCSON 10.7 WNW,,
US1AZPM0304,32.2277,-110.7355,833.3,AZ,TUCSON 10.8 E,,
US1AZPM0214,32.1073,-110.7929,893.7,AZ,TUCSON 10.8 SE,,
USW00053131,32.2394,-111.1697,833.0,AZ,TUCSON 11 W,,
USW00053131,32.2394,-111.1697,833.0,AZ,TUCSON 11 W,,72275
US1AZPM0273,32.3045,-111.0848,722.4,AZ,TUCSON 11.3 WNW,,
US1AZPM0143,32.2543,-110.7233,827.8,AZ,TUCSON 11.7 ENE,,
US1AZPM0003,32.3477,-110.9802,773.6,AZ,TUCSON 11.7 NNW,,
US1AZPM0146,32.303,-110.7438,867.2,AZ,TUCSON 11.8 ENE,,
US1AZPM0292,32.3758,-111.0205,758.6,AZ,TUCSON 12.3 NNW,,
US1AZPM0206,32.3585,-111.0515,713.5,AZ,TUCSON 12.3 NW,,
US1AZPM0315,32.1655,-111.126,751.3,AZ,TUCSON 12.6 WSW,,
US1AZPM0191,32.3686,-111.0714,697.7,AZ,TUCSON 13.5 NW,,
US1AZPM0265,32.3473,-111.1015,660.5,AZ,TUCSON 13.8 NW,,
US1AZPM0112,32.4223,-110.9843,844.3,AZ,TUCSON 14.5 NNW,,
US1AZPM0156,32.2546,-110.672,861.7,AZ,TUCSON 14.7 E,,
US1AZPM0181,32.3707,-111.118,648.0,AZ,TUCSON 15.5 NW,,
USC00028795,32.2542,-111.1961,780.6,AZ,TUCSON 17 NW,,
US1AZPM0107,32.3427,-111.2041,671.5,AZ,TUCSON 18.6 WNW,,
US1AZPM0119,32.2319,-110.8893,768.1,AZ,TUCSON 2.0 ENE,,
US1AZPM0051,32.2144,-110.929,752.9,AZ,TUCSON 2.5 WNW,,
US1AZPM0108,32.2785,-110.9303,719.9,AZ,TUCSON 4.1 N,,
US1AZPM0050,32.2536,-110.9075,743.7,AZ,TUCSON 4.1 NNW,,
US1AZPM0145,32.2163,-110.8363,795.8,AZ,TUCSON 4.9 E,,
US1AZPM0261,32.2555,-110.8449,766.6,AZ,TUCSON 5.0 ENE,,
US1AZPM0005,32.2599,-110.9331,732.1,AZ,TUCSON 5.0 NNW,,
US1AZPM0148,32.2806,-110.9672,710.2,AZ,TUCSON 5.0 NNW,,
US1AZPM0124,32.2829,-110.9689,708.4,AZ,TUCSON 5.2 NNW,,
US1AZPM0201,32.2464,-111.0046,704.7,AZ,TUCSON 5.3 WNW,,
US1AZPM0082,32.2261,-110.7984,805.9,AZ,TUCSON 5.8 ENE,,
US1AZPM0184,32.2483,-110.82,774.5,AZ,TUCSON 6.2 ENE,,
US1AZPM0229,32.2625,-110.8227,765.0,AZ,TUCSON 6.4 ENE,,
US1AZPM0215,32.1324,-110.8829,822.0,AZ,TUCSON 6.4 SSE,,
US1AZPM0007,32.2534,-110.8023,773.3,AZ,TUCSON 6.6 NE,,
US1AZPM0106,32.3025,-110.9961,700.1,AZ,TUCSON 7.2 NW,,
US1AZPM0135,32.2709,-111.0296,703.2,AZ,TUCSON 7.3 WNW,,
US1AZPM0062,32.2763,-110.9904,705.6,AZ,TUCSON 8.0 NW,,
US1AZPM0245,32.2047,-110.7824,855.6,AZ,TUCSON 8.1 E,,
US1AZPM0072,32.2754,-110.7845,808.9,AZ,TUCSON 8.3 NE,,
US1AZPM0233,32.171,-111.05,848.6,AZ,TUCSON 8.3 WSW,,
US1AZPM0132,32.2918,-110.8027,796.4,AZ,TUCSON 8.5 NE,,
US1AZPM0127,32.2106,-110.7695,862.0,AZ,TUCSON 8.8 E,,
US1AZPM0087,32.2009,-110.7691,880.0,AZ,TUCSON 8.9 E,,
US1AZPM0031,32.1389,-111.0382,783.9,AZ,TUCSON 8.9 SW,,
US1AZPM0202,32.2824,-110.7683,819.6,AZ,TUCSON 9.9 ENE,,
US1AZPM0244,32.322,-111.0385,680.9,AZ,TUCSON 9.9 NW,,
US1AZPM0339,32.2841,-111.0709,736.7,AZ,TUCSON 9.9 WNW,,
USC00028796,32.2817,-110.9442,710.2,AZ,TUCSON CAMP AVE EXP,,
USW00023160,32.1314,-110.9553,776.9,AZ,TUCSON INTL AP,,72274
USC00028800,32.25,-110.8333,769.9,AZ,TUCSON MAGNETIC OBSY,,
USC00028817,32.2581,-111.0053,705.6,AZ,TUCSON U OF A #1,,
USC00028815,32.2292,-110.9536,742.2,AZ,TUCSON WFO,HCN,
USC00028865,31.5678,-111.0497,995.8,AZ,TUMACACORI NM,,
USC00028904,34.7706,-112.0264,1057.7,AZ,TUZIGOOT,,
USC00028910,35.1664,-111.2592,1772.4,AZ,TWIN ARROWS,,
USC00028998,32.1264,-110.7247,908.3,AZ,VAIL 7 N,,
US1AZPM0318,32.1297,-111.1299,758.6,AZ,VALENCIA WEST 1.1 E,,
US1AZPM0038,32.1213,-111.1216,768.4,AZ,VALENCIA WEST 1.3 SW,,
US1AZMR0448,33.5763,-112.4536,382.2,AZ,WADDELL 0.2 W,,
USC00029114,36.9953,-111.4914,1136.9,AZ,WAHWEAP,,
USC00029156,35.1706,-111.5067,2037.6,AZ,WALNUT CANYON N.M.,,
USC00029156,35.1722,-111.5097,2040.6,AZ,WALNUT CANYON NM,,
USC00029158,34.9281,-112.8097,1551.4,AZ,WALNUT CREEK,,
USC00029166,34.3117,-112.562,1147.3,AZ,WALNUT GROVE,,
US1AZCH0022,31.6867,-110.3806,1373.7,AZ,WHETSTONE 2.6 SW,,
USC00029271,33.8214,-109.9839,1575.8,AZ,WHITERIVER 1 SW,HCN,
USC00029287,33.9792,-112.7403,638.6,AZ,WICKENBURG,HCN,
USC00029309,34.7061,-113.6136,612.6,AZ,WIKIEUP,,
USC00029309,34.7056,-113.6125,612.6,AZ,WIKIEUP,,
USC00029334,32.2553,-109.8369,1271.0,AZ,WILLCOX,,
USC00029359,35.2406,-112.1903,2057.4,AZ,WILLIAMS,HCN,
USC00029359,35.2414,-112.1928,2105.9,AZ,WILLIAMS,HCN,
US1AZCN0020,35.1934,-112.1765,2209.8,AZ,WILLIAMS 3.3 SSE,,
USW00053155,35.7553,-112.3375,1825.8,AZ,WILLIAMS 35 NNW,,
USW00053155,35.7553,-112.3375,1825.8,AZ,WILLIAMS 35 NNW,,72277
USC00029376,35.8686,-114.6611,225.6,AZ,WILLOW BEACH,,
USC00029410,35.6169,-109.1244,2109.2,AZ,WINDOW ROCK 4 SW,,
USW00003029,35.6575,-109.0614,2054.0,AZ,WINDOW ROCK AP,,
USW00023194,35.0281,-110.7208,1489.3,AZ,WINSLOW MUNI AP,,72374
US1AZMR0499,33.7775,-112.5232,513.0,AZ,WITTMANN 0.5 ESE,,
USC00029464,33.7775,-112.5231,513.0,AZ,WITTMANN 1SE,,
USC00029464,33.7478,-112.5983,509.0,AZ,WITTMANN 4SW,,
USC00029542,35.5247,-111.3703,1496.0,AZ,WUPATKI NM,,
USS0012P02S,35.14,-112.15,2188.5,AZ,White Horse Lake,,
USS0009S18S,33.76,-109.48,2392.7,AZ,Wildcat,,
USS0010S01S,33.81,-110.92,2103.1,AZ,Workman Creek,,
USC00029562,31.4517,-110.2267,1399.0,AZ,Y LIGHTNING RCH,,
USC00029634,33.595,-112.3014,345.9,AZ,YOUNGTOWN,,
USC00029645,34.8775,-114.1344,594.4,AZ,YUCCA 1 NNE,,
US1AZYM0001,32.6341,-114.4056,121.3,AZ,YUMA 13.8 ESE,,
USW00053154,32.835,-114.1883,189.0,AZ,YUMA 27 ENE,,
USW00053154,32.835,-114.1883,189.0,AZ,YUMA 27 ENE,,72279
US1AZYM0007,32.6432,-114.523,64.0,AZ,YUMA 7.7 SE,,
USC00029652,32.6114,-114.635,58.2,AZ,YUMA CITRUS STN,HCN,
USW00003145,32.65,-114.6167,64.9,AZ,YUMA MCAS,,
USW00003125,32.8356,-114.3942,98.8,AZ,YUMA PROVING GROUND,,
USC00029656,32.7278,-114.6217,48.8,AZ,YUMA QUARTERMASTER DEPOT,,
USC00029656,32.7275,-114.6217,48.8,AZ,YUMA QUARTERMASTER DEPOT,,
USW00023195,32.6667,-114.6,62.8,AZ,YUMA WSO AP,,72280
USC00040010,38.2178,-121.2014,26.5,CA,ACAMPO 5NE,,
USC00040014,34.4939,-118.2714,863.5,CA,ACTON ESCONDIDO FC261,,
USC00040029,41.1936,-120.9447,1278.6,CA,ADIN RS,,
USW00023239,37.7333,-122.3167,4.9,CA,ALAMEDA NAS,,74506
USC00040136,32.8358,-116.7775,516.6,CA,ALPINE,,
US1CANV0016,39.1198,-121.0599,702.0,CA,ALTA SIERRA 0.4 WSW,,
USC00040144,34.1822,-118.1383,343.5,CA,ALTADENA,,
US1CALA0005,34.1874,-118.1245,403.3,CA,ALTADENA 0.7 ESE,,
USC00040161,41.4931,-120.5528,1341.1,CA,ALTURAS,,
USC00040161,41.49,-120.5436,1334.4,CA,ALTURAS,,
US1CAMC0004,41.5135,-120.3648,1626.4,CA,ALTURAS 9.5 E,,
USW00094299,41.4914,-120.5644,1333.5,CA,ALTURAS MUNI AP,,
USC00040176,34.5592,-115.7442,197.5,CA,AMBOY,,
USC00040192,33.8647,-117.8425,102.1,CA,ANAHEIM,,
USC00040192,33.8647,-117.8425,71.6,CA,ANAHEIM,,
US1CAOR0021,33.8632,-117.7918,90.8,CA,ANAHEIM 4.9 ENE,,
US1CAOR0039,33.8521,-117.7469,230.1,CA,ANAHEIM 7.3 E,,
USC00040212,38.5731,-122.4406,522.7,CA,ANGWIN PAC UNION COL,,
USC00040212,38.5731,-122.4406,522.7,CA,ANGWIN PACIFIC UNION COLLEGE,,
USC00040232,37.9856,-121.7458,18.3,CA,ANTIOCH PUMP PLT #3,,
USC00040232,37.9833,-121.7525,18.3,CA,ANTIOCH PUMPING PLT #3,,
USC00040235,33.5558,-116.6739,1193.3,CA,ANZA,,
US1CASR0009,34.5043,-117.1808,896.4,CA,APPLE VALLEY 2.6 SE,,
US1CAPC0024,38.9962,-120.986,604.4,CA,APPLEGATE 0.5 SE,,
US1CAHM0063,40.8724,-124.0973,4.6,CA,ARCATA 0.9 WNW,,
USW00024283,40.9781,-124.1086,61.0,CA,ARCATA EUREKA AP,,
US1CAMT0017,36.85,-121.65,104.9,CA,AROMAS 2.0 SSW,,
USC00040343,36.4914,-118.8253,520.6,CA,ASH MTN,,
USC00040820,37.2322,-118.5994,2581.7,CA,ASPENDELL,,
USC00040379,37.0919,-119.5128,637.0,CA,AUBERRY 2 NW,,
USC00040383,38.9072,-121.0839,393.8,CA,AUBURN,,
USW00023191,33.405,-118.4158,488.3,CA,AVALON CATALINA AP,,72292
USS0020H13S,41.24,-120.79,1886.7,CA,Adin Mtn,,
USC00040436,35.2761,-116.0628,293.2,CA,BAKER,,
USC00040444,35.4186,-119.0508,143.3,CA,BAKERSFIELD 5 NW,,
US1CAKN0022,35.3311,-119.1078,112.8,CA,BAKERSFIELD 6.1 WSW,,
USW00023155,35.4344,-119.0542,149.0,CA,BAKERSFIELD AP,,72384
USC00040449,36.9092,-119.0883,524.3,CA,BALCH PWR HOUSE,,
USC00040449,36.9092,-119.0883,528.8,CA,BALCH PWR HOUSE,,
USC00040521,34.8928,-117.0219,676.7,CA,BARSTOW,,
USW00023161,34.8536,-116.7858,584.3,CA,BARSTOW DAGGETT AP,,
USW00093216,39.1167,-121.4333,38.1,CA,BEALE AFB,,
USW00023156,33.9286,-116.9814,789.7,CA,BEAUMONT #2,,
US1CARV0018,33.9543,-117.012,771.8,CA,BEAUMONT 2.5 NW,,
USC00040673,37.0856,-122.0797,128.0,CA,BEN LOMOND #4,,
USC00040684,37.8428,-118.4783,1664.2,CA,BENTON INSPECTION STN,,
USC00040693,37.8744,-122.2606,94.5,CA,BERKELEY,HCN,
US1CAAL0018,37.8575,-122.2256,349.9,CA,BERKELEY 4.0 E,,
USC00040738,40.7406,-123.2078,381.9,CA,BIG BAR 4 E,,
USC00040741,34.2442,-116.9039,2060.4,CA,BIG BEAR LAKE,,
USC00040741,34.2431,-116.9169,2058.3,CA,BIG BEAR LAKE,,
USC00040755,37.2064,-119.2419,1486.8,CA,BIG CREEK PH 1,,
USC00040779,34.3833,-117.6833,2086.4,CA,BIG PINES PARK FC83B,,
USC00040790,36.2472,-121.7803,61.0,CA,BIG SUR STN,,
USC00040798,34.2947,-118.1883,709.0,CA,BIG TUJUNGA DAM FC46,,
USC00040798,34.2947,-118.1886,709.0,CA,BIG TUJUNGA DAM FC46,,
US1CAIN0013,37.3786,-118.4178,1281.1,CA,BISHOP 1.4 WNW,,
US1CAIN0012,37.3474,-118.4153,1286.6,CA,BISHOP 1.7 SW,,
USW00023157,37.3711,-118.3581,1250.3,CA,BISHOP AP,,72480
USC00040819,37.2481,-118.5814,2485.3,CA,BISHOP CREEK INTAKE 2,,
USC00040850,37.3167,-122.1667,646.2,CA,BLACK MTN 2 WSW,,
USW00023225,39.2775,-120.7103,1608.1,CA,BLUE CANYON AP,,
USC00040924,33.6131,-114.5972,81.7,CA,BLYTHE,HCN,
USW00023158,33.6186,-114.7142,120.4,CA,BLYTHE AP,,
USC00040931,39.3886,-120.0936,1699.3,CA,BOCA,,
USW00093245,38.3208,-123.0747,19.2,CA,BODEGA 6 WSW,,
USW00093245,38.3208,-123.0747,19.2,CA,BODEGA 6 WSW,,74518
USC00040943,38.2119,-119.0142,2551.2,CA,BODIE CA ST HISTORIC PARK,,
USC00040943,38.2119,-119.0142,2551.2,CA,BODIE CALIFORNIA ST HISTORIC P,,
US1CAMR0030,37.9059,-122.7009,57.9,CA,BOLINAS 0.2 W,,
US1CAMD0003,39.0062,-123.4084,323.4,CA,BOONVILLE 2.2 WSW,,
USC00040983,33.2314,-116.4144,245.4,CA,BORREGO DESERT PARK,,
USC00040983,33.2558,-116.4036,246.9,CA,BORREGO DESERT PARK,,
US1CASD0014,33.2225,-116.3904,236.8,CA,BORREGO SPRINGS 2.4 WSW,,
US1CASD0130,33.1934,-116.2786,175.0,CA,BORREGO SPRINGS 7.1SE,,
US1CASZ0021,37.1693,-122.1641,266.7,CA,BOULDER CREEK 3.0 NW,,
US1CASZ0036,37.1953,-122.1406,299.9,CA,BOULDER CREEK 4.1 N,,
USC00041010,32.6667,-116.3,1097.3,CA,BOULEVARD 2,,
US1CASD0105,32.6447,-116.3478,1073.2,CA,BOULEVARD 4.4 WSW,,
USC00041018,39.4539,-120.6556,1641.3,CA,BOWMAN DAM,,
USC00041048,32.9544,-115.5581,-30.5,CA,BRAWLEY 2 SW,HCN,
USC00041072,38.2575,-119.2286,1972.1,CA,BRIDGEPORT,,
USC00041080,40.5194,-123.8217,640.1,CA,BRIDGEVILLE 4 NNW,,
US1CAHM0026,40.4734,-123.7013,815.3,CA,BRIDGEVILLE 5.2 ENE,,
USC00041130,39.695,-121.3453,1085.1,CA,BRUSH CREEK RS,,
USC00041149,40.8669,-121.8464,1158.2,CA,BUCKHORN,,
USC00041159,39.9372,-121.3147,576.4,CA,BUCKS CREEK,,
USW00023152,34.2006,-118.3575,225.9,CA,BURBANK GLENDALE PASADENA AP,,72288
USC00041194,34.1867,-118.3481,199.6,CA,BURBANK VALLEY PUMP PLT,,
USC00041214,40.8803,-121.6547,974.8,CA,BURNEY,,
USC00041244,35.4047,-119.4731,82.0,CA,BUTTONWILLOW,,
USC00041244,35.4028,-119.47,68.6,CA,BUTTONWILLOW,,
USS0019L05S,38.61,-119.92,2455.8,CA,Blue Lakes,,
USS0019L41S,38.72,-119.89,2477.7,CA,Burnside Lake,,
USC00041253,34.5825,-119.9817,238.7,CA,CACHUMA LAKE,,
USC00041253,34.5822,-119.9817,240.5,CA,CACHUMA LAKE,,
USC00041277,38.2769,-120.3114,1431.0,CA,CALAVERAS BIG TREES,,
USC00041288,32.6881,-115.4644,3.7,CA,CALEXICO 2 NE,,
USC00041312,38.5961,-122.6014,121.9,CA,CALISTOGA,,
US1CANP0003,38.5764,-122.578,106.1,CA,CALISTOGA 0.4 SSE,,
USC00041316,41.3111,-122.8045,970.8,CA,CALLAHAN,,
USC00041316,41.3378,-122.8247,940.3,CA,CALLAHAN,,
US1CAVT0016,34.2311,-119.0299,54.3,CA,CAMARILLO 0.6 N,,
USW00023136,34.2167,-119.0833,23.5,CA,CAMARILLO AP,,
US1CASC0011,37.2341,-121.8974,76.8,CA,CAMBRIAN PARK 2.2 SE,,
US1CAED0017,38.7338,-120.711,887.0,CA,CAMINO 2.0 WSW,,
USC00041428,38.2486,-120.8433,200.6,CA,CAMP PARDEE,,
USW00003154,33.3,-117.35,22.9,CA,CAMP PENDLETON MCAS,,
USW00003164,32.6233,-116.4728,801.6,CA,CAMPO,,
USC00041424,32.6264,-116.47,801.6,CA,CAMPO,,
USW00003164,32.6261,-116.4681,805.0,CA,CAMPO ASOS,,
USC00041476,41.4219,-120.9017,1313.7,CA,CANBY 3 SW,,
USC00041484,34.1819,-118.5744,240.8,CA,CANOGA PARK PIERCE CLG,,
US1CALA0014,34.4268,-118.4275,492.9,CA,CANYON COUNTRY 2.6 E,,
USC00041497,40.1703,-121.0883,1389.9,CA,CANYON DAM,,
USC00041497,40.1706,-121.0886,1389.9,CA,CANYON DAM,,
US1CASD0023,33.0267,-117.2712,81.1,CA,CARDIFF BY THE SEA 0.2 E,,
US1CASD0086,33.1658,-117.3307,59.1,CA,CARLSBAD 1.3ENE,,
US1CASD0097,33.0794,-117.2419,67.7,CA,CARLSBAD 8.3SE,,
USW00003177,33.1281,-117.2794,100.0,CA,CARLSBAD PALOMAR AP,,
USC00041534,36.4806,-121.7244,146.3,CA,CARMEL VALLEY,,
US1CAMT0042,36.3539,-121.5766,940.0,CA,CARMEL VALLEY VILLAGE 12.2 SE,,
US1CASA0005,38.6429,-121.3059,39.6,CA,CARMICHAEL 0.9 NE,,
US1CAMD0026,39.361,-123.789,98.5,CA,CASPAR 1.4 ESE,,
US1CAAL0003,37.7169,-122.0585,163.4,CA,CASTRO VALLEY 0.4 NNE,,
US1CAMT0006,36.7764,-121.7284,5.5,CA,CASTROVILLE 1.6 ENE,,
US1CAMT0020,36.777,-121.7269,5.2,CA,CASTROVILLE 1.6 ENE,,
US1CAMP0004,37.4152,-120.0998,357.2,CA,CATHEYS VALLEY 1.2 S,,
US1CASN0098,38.5319,-123.1886,369.1,CA,CAZADERO 5.6 W,,
USC00041606,41.1417,-123.1392,704.1,CA,CECILVILLE,,
USC00041614,41.5306,-120.1803,1408.5,CA,CEDARVILLE,HCN,
USC00041614,41.53,-120.1792,1428.9,CA,CEDARVILLE,HCN,
US1CAYB0001,39.4518,-121.2801,624.5,CA,CHALLENGE-BROWNSVILLE 1.3 WSW,,
USC00041680,34.25,-118.6,289.6,CA,CHATSWORTH FC 24 F,,
USC00041697,37.9747,-119.9161,1452.4,CA,CHERRY VALLEY DAM,,
USC00041700,40.3033,-121.2422,1380.7,CA,CHESTER,,
US1CABT0009,39.7494,-121.8614,57.9,CA,CHICO 2.9 W,,
USC00041715,39.6911,-121.8211,56.4,CA,CHICO UNIV FARM,HCN,
USW00093104,35.6875,-117.6931,679.7,CA,CHINA LAKE NAF,,74612
USW00003179,33.9753,-117.6361,198.1,CA,CHINO AP,,
USC00041738,33.6617,-115.7206,520.0,CA,CHIRIACO SUMMIT,,
US1CAMA0008,37.116,-120.252,72.5,CA,CHOWCHILLA 0.3 E,,
USC00041754,34.8078,-119.0114,1603.2,CA,CHUCHUPATE RS,,
USC00041758,32.64,-117.0858,17.1,CA,CHULA VISTA,HCN,
US1CASD0024,32.6168,-117.0519,81.1,CA,CHULA VISTA 2.5SE,,
US1CASD0047,32.6044,-117.0508,61.0,CA,CHULA VISTA 3.1SE,,
US1CASD0018,32.6381,-116.9753,169.2,CA,CHULA VISTA 6.3E,,
US1CASD0133,32.7813,-117.1867,93.6,CA,CLAIREMONT 3.7SSE,,
USC00041806,38.9239,-122.5672,411.2,CA,CLEARLAKE 4 SE,,
USC00041838,38.8,-123.0175,100.6,CA,CLOVERDALE,,
USC00041838,38.7931,-123.0264,121.9,CA,CLOVERDALE,,
US1CASN0029,38.781,-122.963,242.9,CA,CLOVERDALE 3.2 ESE,,
US1CAFR0002,36.8611,-119.6931,116.4,CA,CLOVIS 2.9 N,,
USC00041864,36.1356,-120.3606,204.2,CA,COALINGA,,
USC00041878,37.2503,-119.7053,679.7,CA,COARSEGOLD 1 SW,,
US1CAMA0007,37.247,-119.6855,815.0,CA,COARSEGOLD 1.4 SE,,
USC00041879,37.2119,-119.69,676.0,CA,COARSEGOLD 4SE,,
USC00041907,40.4,-122.1433,128.0,CA,COLEMAN FISHERIES STN,,
USC00041912,39.0911,-120.9481,725.4,CA,COLFAX,HCN,
US1CAPC0011,39.061,-120.9911,633.1,CA,COLFAX 3.1 SW,,
USC00041916,39.3308,-121.1922,181.4,CA,COLGATE PH,,
USC00041916,39.3308,-121.1922,181.4,CA,COLGATE POWERHOUSE,,
USC00041948,39.1875,-122.0269,15.2,CA,COLUSA 2 SSW,,
US1CACC0016,37.9783,-122.0134,37.8,CA,CONCORD 0.8 WNW,,
US1CACC0037,37.9533,-121.9712,81.4,CA,CONCORD 2.1 SE,,
USW00023254,37.9917,-122.055,5.5,CA,CONCORD BUCHANAN FLD,,72495
USC00041967,37.9833,-122.0692,12.2,CA,CONCORD WWTP,,
USC00041990,41.9797,-122.3378,823.9,CA,COPCO #1 DAM,,
USC00042012,36.0975,-119.5817,61.0,CA,CORCORAN IRRIG DIST,,
US1CARV0008,33.7307,-117.4276,427.9,CA,CORONA 12.8 SE,,
US1CATH0029,40.3579,-122.3416,136.2,CA,COTTONWOOD 3.9 SW,,
USC00042081,39.8158,-123.2444,430.7,CA,COVELO,,
USC00042090,34.0917,-117.88,185.0,CA,COVINA CITY YARD FC387B,,
USC00042090,34.0919,-117.8806,185.0,CA,COVINA CITY YRD FC387B,,
USC00042147,41.7958,-124.2147,13.1,CA,CRESCENT CITY 3 NNW,,
US1CADN0001,41.824,-124.1482,19.8,CA,CRESCENT CITY 5.5 NNE,,
USW00024286,41.7803,-124.2367,17.1,CA,CRESCENT CITY MCNAMARA AP,,
USC00042198,34.3175,-117.8419,1629.2,CA,CRYSTAL LAKE FC238C,,
USC00042214,34.0053,-118.4136,20.7,CA,CULVER CITY,,
USC00042214,34.005,-118.4139,28.0,CA,CULVER CITY,,
USC00042239,32.9897,-116.5872,1414.3,CA,CUYAMACA,HCN,
USS0019L45S,38.69,-119.99,2546.0,CA,Carson Pass,,
USS0020H06S,41.58,-120.3,2142.7,CA,Cedar Pass,,
USS0020H02S,41.89,-120.75,1575.8,CA,Crowder Flat,,
USS0020K31S,39.33,-120.37,2089.4,CA,Css Lab,,
US1CAYL0002,38.5618,-121.7241,12.5,CA,DAVIS 0.8 NE,,
US1CAYL0019,38.5592,-121.7162,17.1,CA,DAVIS 1.1 ENE,,
US1CAYL0001,38.5425,-121.721,11.0,CA,DAVIS 1.2 SE,,
USC00042294,38.535,-121.7761,18.3,CA,DAVIS 2 WSW EXP FARM,HCN,
US1CAYL0014,38.5586,-121.778,16.8,CA,DAVIS 2.3 W,,
US1CAYL0009,38.5523,-121.7855,17.4,CA,DAVIS 2.7 W,,
US1CAYL0021,38.5613,-121.8522,26.2,CA,DAVIS 6.3 W,,
USC00042402,39.8717,-121.6108,826.0,CA,DE SABLA,,
USC00042319,36.4622,-116.8669,-59.1,CA,DEATH VALLEY,HCN,
USC00042319,36.4622,-116.8669,-59.1,CA,DEATH VALLEY NP,HCN,
USC00042327,33.6514,-116.3764,365.8,CA,DEEP CANYON LAB,,
USC00042331,37.3739,-117.9803,1592.6,CA,DEEP SPRINGS COLLEGE,,
USC00042338,39.3,-120.8333,1357.9,CA,DEER CREEK FOREBAY,,
USC00042346,35.7683,-119.26,92.0,CA,DELANO,,
US1CASD0054,32.8538,-116.6212,1049.1,CA,DESCANSO 0.3 WNW,,
US1CASD0104,32.8651,-116.6175,1062.8,CA,DESCANSO 0.8 N,,
US1CASD0132,32.9083,-116.6227,1014.1,CA,DESCANSO 3.7N,,
USC00042406,32.85,-116.6167,1066.8,CA,DESCANSO RS,,
USC00042410,33.7378,-115.3925,227.7,CA,DESERT CTR 2 NNE,,
USW00003104,33.6267,-116.1594,-36.0,CA,DESERT RESORTS RGNL AP,,
US1CALA0023,34.0232,-117.7965,285.0,CA,DIAMOND BAR 1.9 NNE,,
USC00042456,39.3575,-121.2011,499.9,CA,DOBBINS 1 S,,
USC00042467,39.3239,-120.2331,1809.6,CA,DONNER MEM SP,,
US1CASK0010,41.9633,-121.923,1295.1,CA,DORRIS 0.2 SW,,
USC00042494,33.9297,-118.1456,33.5,CA,DOWNEY FIRE DEPT FC107C,,
USC00042500,39.5633,-120.8239,888.5,CA,DOWNIEVILLE,,
USC00042504,40.0244,-120.1044,1292.4,CA,DOYLE,,
USC00042504,40.0267,-120.1056,1308.5,CA,DOYLE,,
USC00042506,39.9717,-120.0828,1338.1,CA,DOYLE 4 SSE,,
USC00042574,41.1833,-122.2736,661.4,CA,DUNSMUIR TRTMNT PLT,,
USC00042574,41.1831,-122.2817,661.1,CA,DUNSMUIR TRTMT PL,,
USS0020H12S,41.99,-120.18,2243.3,CA,Dismal Swamp,,
USC00042598,33.8089,-115.4508,296.6,CA,EAGLE MTN,,
USC00042640,39.3592,-122.5178,367.3,CA,EAST PARK RSVR,,
USC00042671,38.7833,-120.0333,2240.3,CA,ECHO SUMT SIERRA AT TA,,
USW00023114,34.9,-117.8667,705.9,CA,EDWARDS AFB,,72381
USW00053144,34.9883,-117.8647,695.9,CA,EDWARDS AFB NORTH AUX FLD,,
USC00042706,32.8139,-116.975,123.4,CA,EL CAJON,,
USC00042706,32.8006,-116.9281,150.9,CA,EL CAJON,,
US1CASD0009,32.7907,-116.987,221.6,CA,EL CAJON 1.5WSW,,
US1CASD0180,32.8153,-116.9269,194.2,CA,EL CAJON 2.2 ENE,,
US1CASD0040,32.7698,-116.9593,224.9,CA,EL CAJON 2.3 S,,
US1CASD0006,32.8112,-116.9254,185.9,CA,EL CAJON 2.3ENE,,
US1CASD0061,32.7724,-116.9197,209.1,CA,EL CAJON 2.8SE,,
US1CASD0099,32.7797,-116.9103,238.7,CA,EL CAJON 3.2ESE,,
USC00042709,32.8839,-116.8164,182.9,CA,EL CAPITAN DAM,,
USC00042709,32.8856,-116.815,182.9,CA,EL CAPITAN DAM,,
USC00042713,32.7669,-115.5617,-9.1,CA,EL CENTRO 2 SSW,,
USW00023199,32.8167,-115.6833,-12.8,CA,EL CENTRO NAF,,72281
US1CACC0040,37.9226,-122.3068,41.8,CA,EL CERRITO 0.3 WNW,,
US1CACC0028,37.9363,-122.3157,78.6,CA,EL CERRITO 1.3 NW,,
US1CAED0023,38.698,-121.0869,235.0,CA,EL DORADO HILLS 0.9 NNW,,
USC00042771,34.5892,-117.6303,899.2,CA,EL MIRAGE,,
USW00093101,33.6667,-117.7333,116.1,CA,EL TORO MCAS,,69014
USC00042728,38.3306,-120.6706,217.9,CA,ELECTRA P H,HCN,
USC00042756,37.9356,-119.2306,2939.8,CA,ELLERY LAKE,,
USC00042760,38.2333,-121.2,28.0,CA,ELLIOTT,,
USC00042805,33.6692,-117.3319,391.7,CA,ELSINORE,,
USC00042805,33.6861,-117.3458,386.5,CA,ELSINORE,,
US1CASD0011,33.0757,-117.292,57.3,CA,ENCINITAS 2.7N,,
US1CASD0007,33.0499,-117.2368,58.8,CA,ENCINITAS 3.34ENE,,
USC00042863,33.1211,-117.0883,182.9,CA,ESCONDIDO #2,,
USC00042863,33.1211,-117.09,182.9,CA,ESCONDIDO #2,,
US1CASD0059,33.1474,-117.0656,223.7,CA,ESCONDIDO 0.8 NNE,,
US1CASD0148,33.1311,-117.1081,221.3,CA,ESCONDIDO 2.2 W,,
US1CASD0010,33.1055,-117.0482,210.3,CA,ESCONDIDO 2.5 SSE,,
US1CASD0008,33.1852,-117.1282,449.3,CA,ESCONDIDO 5.2NNW,,
US1CASD0063,33.0563,-116.9925,483.1,CA,ESCONDIDO 7.2 SE,,
US1CAHM0035,40.7642,-124.1476,59.1,CA,EUREKA 2.2 S,,
USW00024213,40.8097,-124.1603,6.1,CA,EUREKA WFO WOODLEY ISLAND,GSN HCN,72594
USC00042920,37.585,-120.2672,134.7,CA,EXCHEQUER DAM,,
USS0019L19S,38.55,-119.8,2671.6,CA,Ebbetts Pass,,
USS0020L06S,38.85,-120.08,2337.8,CA,Echo Peak,,
USC00042934,38.2736,-122.0678,12.2,CA,FAIRFIELD,,
US1CASO0007,38.2215,-122.143,1006.8,CA,FAIRFIELD 5.9 WSW,,
USC00042941,34.705,-118.4242,932.7,CA,FAIRMONT,HCN,
USC00042941,34.705,-118.4297,932.7,CA,FAIRMONT,HCN,
USC00042964,41.0081,-121.435,1005.8,CA,FALL RIVER MILLS,,
USC00042964,41.0081,-121.435,1005.8,CA,FALL RVR MILLS,,
USW00053151,33.4392,-117.1903,347.5,CA,FALLBROOK 5 NE,,
USW00053151,33.4392,-117.1903,347.5,CA,FALLBROOK 5 NE,,74502
US1CASR0036,34.2712,-116.9383,2142.7,CA,FAWNSKIN 0.3 NE,,
US1CASZ0024,37.1051,-122.0468,255.4,CA,FELTON 4.5 NNE,,
USC00043038,38.5236,-120.7061,658.4,CA,FIDDLETOWN DEXTER RCH,,
USC00043083,36.3642,-120.1561,86.9,CA,FIVE POINTS 5 SSW,,
US1CASA0029,38.6823,-121.1375,121.6,CA,FOLSOM 0.6 NE,,
US1CASA0007,38.66,-121.1395,110.3,CA,FOLSOM 1.2 SSE,,
USC00043113,38.7,-121.1667,106.7,CA,FOLSOM DAM,,
USC00043134,39.01,-120.845,919.0,CA,FORESTHILL RANGER STATION,,
USC00043134,39.01,-120.8456,919.0,CA,FORESTHILL RS,,
US1CASN0090,38.4733,-122.8974,61.3,CA,FORESTVILLE 0.7 SW,,
US1CASK0009,41.2688,-123.3336,507.2,CA,FORKS OF SALMON 1.0 NW,,
US1CAHM0029,40.5867,-124.1409,19.8,CA,FORTUNA 0.1 NW,,
US1CASM0006,37.5488,-122.2587,2.1,CA,FOSTER CITY 1.3 SW,,
US1CAVT0002,34.746,-119.1103,1607.5,CA,FRAZIER PARK 10.7 WSW,,
USC00043244,37.5422,-122.0158,11.6,CA,FREMONT,,
US1CAFR0014,36.8053,-119.8222,97.2,CA,FRESNO 2.4 NW,,
USC00043251,36.9089,-119.8006,115.8,CA,FRESNO 3NW,,
USC00043256,36.7525,-119.7017,100.0,CA,FRESNO 5 NE,,
USC00043256,36.7672,-119.7092,103.0,CA,FRESNO 5 NE,,
US1CAFR0026,36.8768,-119.7435,117.7,CA,FRESNO 7.2 NNE,,
USW00093193,36.78,-119.7194,101.5,CA,FRESNO YOSEMITE INTL AP,GSN HCN,72389
USC00043261,36.9969,-119.7072,125.0,CA,FRIANT GOVERNMENT CAMP,,
USC00043157,41.52,-120.09,1442.3,CA,FT BIDWELL,,
USC00043157,41.8714,-120.1575,1444.4,CA,FT BIDWELL,,
USC00043161,39.5092,-123.7567,37.5,CA,FT BRAGG 5 N,HCN,
USC00043191,38.515,-123.2447,34.1,CA,FT ROSS,,
USW00003166,33.8719,-117.9789,29.3,CA,FULLERTON MUNI AP,,
USS0020L10S,38.93,-120.05,1900.7,CA,Fallen Leaf,,
USS0019L43S,38.68,-119.96,2443.6,CA,Forestdale Creek,,
US1CAHM0030,40.0775,-123.8239,126.5,CA,GARBERVILLE 2.2 SW,,
USC00043357,41.8453,-123.9647,118.0,CA,GASQUET RS,,
USC00043369,37.7519,-119.1403,2734.1,CA,GEM LAKE,,
USC00043384,38.9331,-120.8008,914.7,CA,GEORGETOWN RS,,
USC00043392,34.0869,-118.4794,340.5,CA,GETTY CTR,,
USC00043402,34.5225,-119.6822,474.9,CA,GIBRALTAR DAM #2,,
USC00043402,34.5225,-119.6822,474.9,CA,GIBRALTAR DAM NO 2,,
USC00043417,37.0067,-121.5633,59.1,CA,GILROY,,
USC00043417,37.0031,-121.5608,59.1,CA,GILROY,,
US1CASN0080,38.3778,-122.5343,102.7,CA,GLEN ELLEN 1.5 N,,
US1CASN0070,38.3651,-122.5718,291.4,CA,GLEN ELLEN 1.9 WNW,,
US1CALA0001,34.1689,-118.2947,155.8,CA,GLENDALE 2.4 WSW,,
USC00043452,34.1472,-117.8472,284.4,CA,GLENDORA FC 287B,,
USC00043463,35.7269,-118.7006,957.1,CA,GLENNVILLE,,
USC00043489,32.8833,-114.8667,147.8,CA,GOLD ROCK RCH,,
USC00043491,39.165,-120.8567,1011.9,CA,GOLD RUN 2 SW,,
USC00043498,35.2814,-116.7844,899.2,CA,GOLDSTONE ECHO #2,,
US1CASB0001,34.4397,-119.8961,48.2,CA,GOLETA 3.7 WNW,,
USC00043551,36.7394,-118.9631,2011.7,CA,GRANT GROVE,,
USC00043551,36.7375,-118.9619,2005.6,CA,GRANT GROVE,,
USC00043573,39.2042,-121.0681,731.5,CA,GRASS VALLEY #2,,
US1CANV0035,39.2382,-121.0463,848.0,CA,GRASS VALLEY 1.3 NNE,,
US1CANV0036,39.1943,-121.0917,711.4,CA,GRASS VALLEY 2.7 SW,,
USC00043578,38.4306,-122.8647,61.0,CA,GRATON,,
USC00043614,41.5519,-122.9236,859.5,CA,GREENVIEW,,
US1CASK0020,41.6323,-122.5373,807.7,CA,GRENADA 0.8 SW,,
US1CABT0026,39.3348,-121.6458,28.0,CA,GRIDLEY 3.3 SE,,
USC00043647,40.4864,-123.9089,125.9,CA,GRIZZLY CREEK SP,,
USC00043669,37.8444,-120.2258,853.4,CA,GROVELAND 2,,
USC00043672,37.8231,-120.0983,958.6,CA,GROVELAND RS,,
USC00043710,36.1389,-117.9528,1165.9,CA,HAIWEE,,
USC00043714,37.4725,-122.4433,8.2,CA,HALF MOON BAY,,
US1CASM0007,37.463,-122.4408,16.5,CA,HALF MOON BAY 0.5 SSW,,
US1CASM0016,37.4777,-122.4454,11.0,CA,HALF MOON BAY 0.7 NW,,
USC00043747,36.3158,-119.6369,72.2,CA,HANFORD 1 S,HCN,
US1CAKG0005,36.3349,-119.6743,74.7,CA,HANFORD 1.7 WNW,,
US1CAKG0004,36.3769,-119.6527,78.6,CA,HANFORD 3.6 N,,
USW00053119,36.3189,-119.6289,75.9,CA,HANFORD MUNI AP,,
USC00043800,39.2372,-121.2667,243.8,CA,HARRY L ENGLEBRIGHT DAM,,
USC00043800,39.2372,-121.2667,243.8,CA,HARRY L ENGLEBRIGHT DM,,
USC00043824,40.9317,-121.5433,919.0,CA,HAT CREEK,,
USW00003167,33.9228,-118.3342,19.2,CA,HAWTHORNE MUNI AP,,
USC00043855,33.7044,-115.6289,417.6,CA,HAYFIELD PUMPING PLT,,
USW00093228,37.6542,-122.115,13.1,CA,HAYWARD AIR TERMINAL,,72585
USC00043875,38.6175,-122.8731,32.9,CA,HEALDSBURG,HCN,
USC00043875,38.6294,-122.8664,53.9,CA,HEALDSBURG,HCN,
USC00043878,38.6333,-122.8667,45.7,CA,HEALDSBURG #2,,
US1CASN0089,38.7839,-122.9628,312.7,CA,HEALDSBURG 12.6 NNW,,
US1CASN0074,38.6476,-122.9207,43.3,CA,HEALDSBURG 3.7 WNW,,
USC00043882,35.6842,-121.1683,465.1,CA,HEARST CASTLE,,
US1CAFR0008,36.5702,-120.0892,55.8,CA,HELM 2.7 NNE,,
USC00043896,33.7381,-116.8939,552.0,CA,HEMET,,
US1CARV0005,33.7527,-116.9196,517.6,CA,HEMET 4.1 ENE,,
USC00043914,33.2372,-116.7614,823.0,CA,HENSHAW DAM,,
USC00043937,34.4206,-117.2661,931.2,CA,HESPERIA 2E,,
US1CASR0026,34.3725,-117.3404,1090.6,CA,HESPERIA 3.9 SW,,
USC00043939,37.9614,-119.7831,1179.6,CA,HETCH HETCHY,,
USC00044025,36.8483,-121.4214,83.8,CA,HOLLISTER 2,,
